$GPRMC,143002.00,V,,,,,,,310814,,,N*76
$GPVTG,,,,,,,,,N*30
$GPGGA,143002.00,04,12.61,,,,,,*62
$GPGSA,A,1,20,31,23,04,,,,,,,,,15.30,12.61,8.66*0E
$GPGSV,3,43,11,,,37*7C
$GPGSV,3,2,11,13,,,28,16,,,29,20,47,192,42,23,43,225,33*72
$GPGSV,36,35*72
$GPGLL,,,,,143002.00,V,N*4E
$GPTXT,01,01,00,rxbuf alloc port 1*51
$GPRMC,143003.00,V,,,,,,,310814,,,N*77
$GPVTG,,,,,,,,,N*30
$GP,143003.00,,,,,0,04,12.59,,,,,,*68
$GPGSA,A,1,20,31,23,04,,,,,,,,,15.27,12.59,8.6,238,32,09,45,190,42,11,,,37*7C
$GPGSV,3,2,11,13,,,28,16,,,30,20,47,192,42,23,43,20,32,,,40,33,48,066,35*72
$GPGLL,,,,,143003.00,V,N*4F
$GPTXT,01,01,00,rxbuf alloc port 1*51
$GPRMC,143004.00,A,1555.48986,S,04806.49994,W,2.035,82.50,310814,,,A*5B
$GPVT0,T,,M,2.035,N,3.770,K,A*05
$GPGGA,143004.00,1555.48986,S,04806.49994,W,1,08,1.43,20,01,16,31,32,23,11,04,,,,,3.29,1.43,2.96*03
$GPGSV,3,1,11,01,70,307,29,04,46,238GPGSV,3,2,11,13,,,27,16,23,060,30,20,47,192,43,23,43,225,34*44
$GPGSV,3,3,11,31,14A
$GPGLL,1555.48986,S,04806.49994,W,143004.00,A,A*68
$GPTXT,01,01,00,rxbuf allo$GPRMC,143005.00,A,1555.48988,S,04806.50015,W,0.102,,310814,,,A*7A
$GPVTG,,T,,M,0N,0.189,K,A*20
$GPGGA,143005.00,1555.48988,S,04806.50015,W,1,08,1.21,1149.7,M,-111,32,23,11,04,,,,,2.70,1.21,2.41*00
$GPGSV,3,1,11,01,70,307,30,04,46,238,31,09,45,,2,11,13,,,26,16,23,060,30,20,47,192,42,23,43,225,34*44
$GPGSV,3,3,11,31,15,143,4$GPGLL,1555.48988,S,04806.50015,W,143005.00,A,A*6F
$GPTXT,01,01,00,rxbuf alloc por$GPRMC,143006.00,A,1555.48993,S,04806.50030,W,0.086,,310814,,,A*79
$GPVTG,,T,,M,0.0.160,K,A*2A
$GPGGA,143006.00,1555.48993,S,04806.50030,W,1,08,1.21,1149.4,M,-11.8,,2.41*00
$GPGSV,3,1,11,01,70,307,30,04,46,238,31,09,45,190,42,11,46,335,37*72
$G port 1*51
$GPRMC,143007.00,A,1555.49002,S,04806.50039,W,0.178,,310814,,,A*71
$GPVTG,0.178,N,0.330,K,A*2D
$GPGGA,143007.00,1555.49002,S,04806.50039,W,1,08,1.21,1149.7,16,31,32,23,11,04,,,,,2.70,1.21,2.41*00
$GPGSV,3,1,11,01,70,307,30,04,46,238,31,0V,3,2,11,13,,,26,16,23,060,29,20,47,192,42,23,43,225,33*4B
$GPGSV,3,3,11,31,15,143PGLL,1555.49002,S,04806.50039,W,143007.00,A,A*69
$GPTXT,01,01,00,rxbuf alloc port$GPRMC,143008.00,A,1555.48998,S,04806.50045,W,0.044,,310814,,,A*70
$GPVTG,,T,,M,0.044N,0.082,K,A*29
$GPGGA,143008.00,1555.48998,S,04806.50045,W,1,08,1.21,1149.8,M,-11.,32,23,11,04,,,,,2.70,1.21,2.41*00
$GPGSV,3,1,11,01,70,307,29,04,46,238,32,09,45,,3,2,11,13,,,27,16,23,060,29,20,47,192,42,23,43,225,33*4A
$GPGSV,3,3,11,31,15,1439
$GPGLL,1555.48998,S,04806.50045,W,143008.00,A,A*66
$GPTXT,01,01,00,rxbuf alloc $GPRMC,143009.00,A,1555.48993,S,04806.50045,W,0.046,,310814,,,A*78
$GPVTG,,T,,MGPGGA,143009.00,1555.48993,S,04806.50045,W,1,08,1.21,1149.9,M,-11.8,M,,*42
$GPGSA,,2.70,1.21,2.41*00
$GPGSV,3,1,11,01,70,307,30,04,46,238,32,09,45,190,42,11,46,3323,060,29,20,47,192,41,23,43,225,33*46
$GPGSV,3,3,11,31,15,143,40,32,49,124,40,33,04806.50045,W,143009.00,A,A*6C
$GPTXT,01,01,00,rxbuf alloc port 1*51
$GPRMC,143010.00,A,1555.48994,S,04806.50053,W,0.005,,310814,,,A*77
$TG,,T,,M,0.005,N,0.009,K,A*2F
$GPGGA,143010.00,1555.48994,S,04806.50053,W,1,08,1.220,01,16,31,32,23,11,04,,,,,2.70,1.21,2.41*00
$GPGSV,3,1,11,01,70,307,29,04,46,239,16,23,060,29,20,47,192,41,23,43,225,33*47
$GPGSV,3,3,11,31,15,143,40,32,49,124,$GPRMC,143011.00,A,1555.48995,S,04806.50066,W,0.007,,310814,,,A*73
$GPVTG55.48995,S,04806.50066,W,1,08,1.21,1149.7,M,-11.8,M,,*42
$GPGSA,A,3,20,01,16,31,32*00
$GPGSV,3,1,11,01,70,307,27,04,46,238,33,09,45,190,42,11,46,335,37*76
$GPGSV,32,41,23,43,225,33*4F
$GPGSV,3,3,11,31,15,143,40,32,49,124,41,33,48,066,35*49
$GPG11.00,A,A*62
$GPTXT,01,01,00,rxbuf alloc port 1*51
$GPRMC,143012.00,A,1555.48996,S,04806.50073,W,0.015,,310814,,,A*74
$GPV,T,,M,0.015,N,0.029,K,A*2C
$GPGGA,143012.00,1555.48996,S,04806.50073,W,1,08,1.21,,A,3,20,01,16,31,32,23,11,04,,,,,2.70,1.21,2.41*00
$GPGSV,3,1,11,01,70,307,26,04,*77
$GPGSV,3,2,11,13,,,30,16,23,060,28,20,47,192,41,23,43,225,34*49
$GPGSV,3,3,1,066,35*49
$GPGLL,1555.48996,S,04806.50073,W,143012.00,A,A*66
$GPTXT,01,01,00,rxb$GPRMC,143013.00,A,1555.48994,S,04806.50080,W,0.016,,310814,,,A*78
TG,,T,,M,0.016,N,0.030,K,A*27
$GPGGA,143013.00,1555.48994,S,04806.50080,W,1,08,1.204,,,,,2.70,1.21,2.41*00
$GPGSV,3,1,11,01,70,307,27,04,46,238,34,09,45,190,42,11,31,16,23,060,29,20,47,192,41,23,43,225,33*4E
$GPGSV,3,3,11,31,15,143,41,32,49,124,4,S,04806.50080,W,143013.00,A,A*69
$GPTXT,01,01,00,rxbuf alloc port 1*51
$GPRMC,143014.00,A,1555.48990,S,04806.50087,W,0.022,,310814,,,A*7B
$GPVTG,,T,,,N,0.042,K,A*25
$GPGGA,143014.00,1555.48990,S,04806.50087,W,1,08,1.21,1149.4,M,-12,23,11,04,,,,,2.70,1.21,2.41*00
$GPGSV,3,1,11,01,70,307,27,04,46,238,33,09,45,190014.00,A,A*6D
$GPTXT,01,01,00,rxbuf alloc port 1*51
$GPRMC,143015.00,A,1555.48986,S,04806.50095,W,0.028,,310814,,,A*74
$GPVTG,,T28,N,0.052,K,A*2E
$GPGGA,143015.00,1555.48986,S,04806.50095,W,1,08,1.21,1149.3,M,-1,32,23,11,04,,,,,2.70,1.21,2.41*00
$GPGSV,3,1,11,01,70,307,28,04,46,238,33,09,45,11,13,,,31,16,23,060,29,20,47,192,41,23,43,225,33*4E
$GPGSV,3,3,11,31,15,143,41,3,1555.48986,S,04806.50095,W,143015.00,A,A*68
$GPTXT,01,01,00,rxbuf alloc port 1*5$GPRMC,143016.00,A,1555.48982,S,04806.50103,W,0.041,,310814,,,A*72
$GPVTG,,T,,M,0.0410.076,K,A*27
$GPGGA,143016.00,1555.48982,S,04806.50103,W,1,08,1.21,1149.0,M,-11.8,32,23,11,04,,,,,2.70,1.21,2.41*00
$GPGSV,3,1,11,01,70,307,27,04,46,238,33,09,45,111,13,,,30,16,23,060,29,20,47,192,41,23,43,225,33*4F
$GPGSV,3,3,11,31,15,143,41,32GPGLL,1555.48982,S,04806.50103,W,143016.00,A,A*61
$GPTXT,01,01,00,rxbuf alloc port$GPRMC,143017.00,A,1555.48981,S,04806.50109,W,0.026,,310814,,,A*7B
$GPVTG,,T,,M,0.026,N,0.047,K,A*24
$GPGGA,143017.00,1555.48981,S,04806.50109,W,1,08,1,11,04,,,,,2.70,1.21,2.41*00
$GPGSV,3,1,11,01,70,307,27,04,46,238,34,09,45,190,42,,,,30,16,23,060,30,20,47,192,41,23,43,225,33*47
$GPGSV,3,3,11,31,15,143,41,32,49,18981,S,04806.50109,W,143017.00,A,A*69
$GPTXT,01,01,00,rxbuf alloc port 1*51
$GPRMC,143018.00,A,1555.48978,S,04806.50111,W,0.026,,310814,,,A*7B
$GPVTG,2,23,11,04,,,,,2.70,1.21,2.41*00
$GPGSV,3,1,11,01,70,307,27,04,46,238,33,09,45,1903,,,30,16,23,060,30,20,47,192,41,23,43,225,33*47
$GPGSV,3,3,11,31,15,143,41,32,49.48978,S,04806.50111,W,143018.00,A,A*69
$GPTXT,01,01,00,rxbuf alloc port 1*51
$GPRMC,143019.00,A,1555.48973,S,04806.50111,W,0.015,,310814,,,A*71
$GPVTG,,T,,M,555.48973,S,04806.50111,W,1,08,1.21,1149.0,M,-11.8,M,,*44
$GPGSA,A,3,20,01,16,31,GSV,3,1,11,01,70,307,27,04,46,238,34,09,45,190,42,11,46,335,37*71
$GPGSV,3,2,11,13,225,34*40
$GPGSV,3,3,11,31,15,143,41,32,49,124,41,33,48,066,35*48
$GPGLL,1555.4*63
$GPTXT,01,01,00,rxbuf alloc port 1*51
$GPRMC,143020.00,A,1555.48967,S,04806.50114,W,0.028,,310814,,,A*75
$GPVTG,0.028,N,0.051,K,A*2D
$GPGGA,143020.00,1555.48967,S,04806.50114,W,1,08,1.21,1148.9,41*00
$GPGSV,3,1,11,01,70,307,27,04,46,238,34,09,45,190,42,11,46,335,37*71
$GPGSV20,47,192,41,23,43,225,34*41
$GPGSV,3,3,11,31,15,143,41,32,49,124,41,33,48,066,354,W,143020.00,A,A*69
$GPTXT,01,01,00,rxbuf alloc port 1*51
$GPRMC,143021.00,A,1555.48962,S,04806.50116,W,0.018,,310814,,,A*70
$G,,T,,M,0.018,N,0.033,K,A*2A
$GPGGA,143021.00,1555.48962,S,04806.50116,W,1,08,1.2,3,20,01,16,31,32,23,11,04,,,,,2.70,1.21,2.41*00
$GPGSV,3,1,11,01,70,307,27,04,46,2,11,13,,,31,16,23,060,30,20,47,192,41,23,43,225,34*41
$GPGSV,3,3,11,31,15,143,4GPGLL,1555.48962,S,04806.50116,W,143021.00,A,A*6F
$GPTXT,01,01,00,rxbuf alloc port$GPRMC,143022.00,A,1555.48958,S,04806.50115,W,0.011,,310814,,,A*70
$GPVTG,,T,,M,0,23,11,04,,,,,2.70,1.21,2.41*00
$GPGSV,3,1,11,01,70,307,28,04,46,238,34,09,45,190,3,,,31,16,23,060,29,20,47,192,41,23,43,225,34*49
$GPGSV,3,3,11,31,15,143,41,32,49,8958,S,04806.50115,W,143022.00,A,A*66
$GPTXT,01,01,00,rxbuf alloc port 1*51
$GPRMC,143023.00,A,1555.48955,S,04806.50116,W,0.028,,310814,,,A*75
$GPVTG,,T,,M,0.00.052,K,A*2E
$GPGGA,143023.00,1555.48955,S,04806.50116,W,1,08,1.21,1148.3,M,-11.823,11,04,,,,,2.70,1.21,2.41*00
$GPGSV,3,1,11,01,70,307,28,04,46,238,34,09,45,190,43,,,31,16,23,060,29,20,47,192,41,23,43,225,34*49
$GPGSV,3,3,11,31,15,143,41,32,49,.48955,S,04806.50116,W,143023.00,A,A*69
$GPTXT,01,01,00,rxbuf alloc port 1*51
$GPRMC,143024.00,A,1555.48953,S,04806.50117,W,0.030,,310814,,,A*7C
$GPVTG,,T0.030,N,0.056,K,A*23
$GPGGA,143024.00,1555.48953,S,04806.50117,W,1,08,1.21,1148.2,,,,2.70,1.21,2.41*00
$GPGSV,3,1,11,01,70,307,28,04,46,238,33,09,45,190,41,11,46,23,060,29,20,47,192,41,23,43,225,33*4E
$GPGSV,3,3,11,31,15,143,41,32,49,123,41,33,4806.50117,W,143024.00,A,A*69
$GPTXT,01,01,00,rxbuf alloc port 1*51
$GPRMC,143025.00,A,1555.48952,S,04806.50119,W,0.052,,310814,,,A*76
$GPVTG,,T,,,N,0.096,K,A*2B
$GPGGA,143025.00,1555.48952,S,04806.50119,W,1,08,1.21,1148.0,M,-1132,23,11,04,,,,,2.70,1.21,2.41*00
$GPGSV,3,1,11,01,70,307,28,04,46,238,34,09,45,19,060,29,20,47,192,41,23,43,225,32*4F
$GPGSV,3,3,11,31,15,143,41,32,49,123,41,33,4806.50119,W,143025.00,A,A*67
$GPTXT,01,01,00,rxbuf alloc port 1*51
$GPRMC,143026.00,A,1555.48951,S,04806.50122,W,0.024,,310814,,,A*7F
$GPVTG,,T024,N,0.045,K,A*24
$GPGGA,143026.00,1555.48951,S,04806.50122,W,1,08,1.21,1147.8,M31,32,23,11,04,,,,,2.70,1.21,2.41*00
$GPGSV,3,1,11,01,70,307,29,04,46,238,34,09,45,11,13,,,32,16,23,060,29,20,47,192,41,23,43,225,33*4D
$GPGSV,3,3,11,31,15,143,41,GLL,1555.48951,S,04806.50122,W,143026.00,A,A*6F
$GPTXT,01,01,00,rxbuf alloc port 1$GPRMC,143027.00,A,1555.48950,S,04806.50125,W,0.018,,310814,,,A*77
$GPVTT,,M,0.018,N,0.034,K,A*2D
$GPGGA,143027.00,1555.48950,S,04806.50125,W,1,08,1.21,10,01,16,31,32,23,11,04,,,,,2.70,1.21,2.41*00
$GPGSV,3,1,11,01,70,307,28,04,46,238GPGSV,3,2,11,13,,,32,16,23,060,29,20,47,192,42,23,43,225,33*4E
$GPGSV,3,3,11,31,15*4C
$GPGLL,1555.48950,S,04806.50125,W,143027.00,A,A*68
$GPTXT,01,01,00,rxbuf all$GPRMC,143028.00,A,1555.48947,S,04806.50126,W,0.025,,310814,,,A*73
$GPVTG,,T,,M,0.047,K,A*27
$GPGGA,143028.00,1555.48947,S,04806.50126,W,1,08,1.21,1147.2,M,-11.8,M,11,04,,,,,2.70,1.21,2.41*00
$GPGSV,3,1,11,01,70,307,27,04,46,238,34,09,45,190,41,,33,16,23,060,29,20,47,192,41,23,43,225,33*4C
$GPGSV,3,3,11,31,15,143,41,32,49,148947,S,04806.50126,W,143028.00,A,A*62
$GPTXT,01,01,00,rxbuf alloc port 1*51
$GPRMC,143029.00,A,1555.48946,S,04806.50126,W,0.020,,310814,,,A*76$GPVTG,,T,,M,0.020,N,0.037,K,A*25
$GPGGA,143029.00,1555.48946,S,04806.50126,W,1,031,32,23,11,04,,,,,2.70,1.21,2.41*00
$GPGSV,3,1,11,01,70,307,27,04,46,238,34,09,423,43,225,34*42
$GPGSV,3,3,11,31,15,143,41,32,49,123,41,33,48,066,35*4F
$GPGLL,15$GPRMC,143030.00,A,1555.48946,S,04806.50128,W,0.032,,310814,,,A*73
G,,T,,M,0.032,N,0.059,K,A*2E
$GPGGA,143030.00,1555.48946,S,04806.50128,W,1,08,1.2,3,20,01,16,31,32,23,11,04,,,,,2.70,1.21,2.41*00
$GPGSV,3,1,11,01,70,307,26,04,467C
$GPGSV,3,2,11,13,,,34,16,23,060,30,20,47,192,42,23,43,225,34*47
$GPGSV,3,3,116,35*4C
$GPGLL,1555.48946,S,04806.50128,W,143030.00,A,A*64
$GPTXT,01,01,00,rxbuf $GPRMC,143031.00,A,1555.48948,S,04806.50132,W,0.036,,310814,,,A*73
$GPVTG,,T,,M36,N,0.067,K,A*27
$GPGGA,143031.00,1555.48948,S,04806.50132,W,1,08,1.21,1146.5,M,31,32,23,11,04,,,,,2.70,1.21,2.41*00
$GPGSV,3,1,11,01,70,307,26,04,46,238,34,09,45,11,13,,,34,16,23,060,30,20,47,192,42,23,43,225,34*47
$GPGSV,3,3,11,31,15,143,41,GLL,1555.48948,S,04806.50132,W,143031.00,A,A*60
$GPTXT,01,01,00,rxbuf alloc port 1$GPRMC,143032.00,A,1555.48954,S,04806.50132,W,0.029,,310814,,,A*73
$GPVTG,,,0.029,N,0.054,K,A*29
$GPGGA,143032.00,1555.48954,S,04806.50132,W,1,08,1.21,1146.46,31,32,23,11,04,,,,,2.69,1.21,2.41*08
$GPGSV,3,1,11,01,70,307,27,04,46,238,35,09,2,11,13,,,33,16,23,060,30,20,47,192,42,23,43,225,34*40
$GPGSV,3,3,11,31,15,143,42,1555.48954,S,04806.50132,W,143032.00,A,A*6E
$GPTXT,01,01,00,rxbuf alloc port 1*51$GPRMC,143033.00,A,1555.48956,S,04806.50123,W,0.010,,310814,,,A*7A
$GPVTG,,T,,M0,N,0.018,K,A*2B
$GPGGA,143033.00,1555.48956,S,04806.50123,W,1,08,1.21,1146.3,M,-,,,2.69,1.21,2.41*08
$GPGSV,3,1,11,01,70,307,28,04,46,238,36,09,45,190,43,11,46,3323,060,30,20,47,192,43,23,43,225,37*47
$GPGSV,3,3,11,31,15,143,43,32,49,123,44,33,$GPRMC,143034.00,A,1555.48960,S,04806.50122,W,0.033,,310814,,,A*78
$GPVTG,,T,,M,0.033,N,0.061,K,A*24
$GPGGA,143034.00,1555.48960,S,04806.50122,W,1,08,1.21,1146.21,16,31,32,23,11,04,,,,,2.69,1.21,2.41*08
$GPGSV,3,1,11,01,70,307,21,04,46,238,35,SV,3,2,11,13,,,36,16,23,060,31,20,47,192,43,23,43,225,34*45
$GPGSV,3,3,11,31,15,141555.48960,S,04806.50122,W,143034.00,A,A*6E
$GPTXT,01,01,00,rxbuf alloc port 1*51
$GPRMC,143035.00,A,1555.48960,S,04806.50114,W,0.009,,310814,,,A*75
$GPVTG,,T,,M,0.009,N,0.017,K,A*2C
$GPGGA,143035.00,1555.48960,S,04806.50114,W,1,08,1.21,1146.26,31,32,23,11,04,,,,,2.69,1.21,2.41*08
$GPGSV,3,1,11,01,70,307,30,04,46,238,35,09PGSV,3,2,11,13,,,37,16,23,060,31,20,47,192,43,23,43,225,37*47
$GPGSV,3,3,11,31,157*4D
$GPGLL,1555.48960,S,04806.50114,W,143035.00,A,A*6A
$GPTXT,01,01,00,rxbuf all