$GPRMC,,V,,,,,,,,,,N*53
$GPVTG,,,,,,,,,N*30
$GPGGA,,,,,,0,00,99.1,,,,,,,,,,,,,99.99,99.99,99.99*30
$GPGSV,1,1,00*79
$GPGLL,,,,,,V,N*64
$GPTXT,01$GPTXT,01,01,02,ANTSTATUS=OK*3B
$GPTXT,01,01,00,rxbuf alloc port 1*51
$GPTXT,01,01,01,NMEA unknown msg*58
$GPTXT,01,01,01,NMEA unknown msg*58
$GPTXT,01,01,01,NMEA unknown msg*58
$GPTXT,01,01,01,NMEA unknown m01,NMEA unknown msg*58
$GPRMC,,V,,,,,,,,,,N*53
$GPVTG,,,,,,,,,N*30
$GPGGA,,,,,,0,00,99.99,,,,,,*48
$GPGSA,A,1,,,,,,,,,,,,,99.99,99.99,99.99*30
$GPGSV,1,1,00*79,V,N*64
$GPTXT,01,01,00,rxbuf alloc port 1*51
$GPRMC,,V,,,,,,,,,,N*53
$GPVTG,,,,,,,,,N*30
$GPGGA,,,,,,0,00,99.99,,,,,,*48
$GPGSA,A,1,,,,,,,,,,,,,99.99,99.99,99.99*30
$GPGSV,1,1L,,,,,,V,N*64
$GPTXT,01,01,00,rxbuf alloc port 1*51
$GPRMC,,V,,,,,,,,,,N*53
$GPVTG,,,,,,,,,N*30
$GPGGA,,,,,,0,00,99.99,,,,,,*48
$GPGSA,A,1,,,,,,,,,,,,,99.99,99.99,99.99*30
$GPGSV,1,1,00*79
$TXT,01,01,00,rxbuf alloc port 1*51
$GPRMC,,V,,,,,,,,,,N*53
$GPVTG,,,,,,,,,N*30
$GPGGA,,,,,,0,00,99.99,,,,,,*48
$GPGSA,A,1,,,,,,,,,,,,,99.99,99.99,99.99*30
$GPGSV,1,1,00*79
$GPRMC,,V,,,,,,,,,,N*53
$GPVTG,,,,,,,,,N*30
$GPGGA,,,,,,0,00,99.99,,,,,,*48
$GPGSA,A,1,,,,,,,,,,,,,99.99,99.99,99.99*30
$GPGSV,1,1,00LL,,,,,,V,N*64
$GPTXT,01,01,00,rxbuf alloc port 1*51
$GPRMC,,V,,,,,,,,,,N*53
$GPVTG,,,,,,,,,N*30
$GPGGA,,,,,,0,00,99.99,,,,,,*48
$GPGSA,A,1,,,,,,,,,,,,,99.99,99.99,99.99*30
$GPGSV,1,1,00*79V,N*64
$GPTXT,01,01,00,rxbuf alloc port 1*51
$GPRMC,,V,,,,,,,,,,N*53
$GPVTG,,,,,,,,,N*30
$GPGGA,,,,,,0,00,99.99,,,,,,*48
$GPGSA,A,1,,,,,,,,,,,,,99.99,99.99,99.99*30
$GPGSV,1,1,4*7F
$GPGLL,,,,,,V,N*64
$GPTXT,01,01,00,rxbuf alloc port 1*51
$GPRMC,,V,,,,,,,,,,N*53
$GPVTG,,,,,,,,,N*30
$GPGGA,,,,,,0,00,99.99,,,,,,*48
$GPGSA,A,1,,,,,,,,,,,,,99.99,99.99,99.99*30
$GPGSV,1,1,0,,,,,V,N*64
$GPTXT,01,01,00,rxbuf alloc port 1*51
$GPRMC,,V,,,,,,,,,,N*53
$GPVTG,,,,,,,,,N*30
$GPGGA,,,,,,0,00,99.99,,,,,,*48
$GPGSA,A,1,,,,,,,,,,,,,99.99,99.99,99.99*30
$GPGSV,1,1,00*79N*64
$GPTXT,01,01,00,rxbuf alloc port 1*51
$GPRMC,,V,,,,,,,,,,N*53
$GPVTG,,,,,,,,,N*30
$GPGGA,,,,,,0,00,9f alloc port 1*51
$GPRMC,,V,,,,,,,,,,N*53
$GPVTG,,,,,,,,,N*30
$GPGGA,,,,,,0,00,99.99,,,,,,*48
$GPGSA,A,1,,,,,,,,,,,,,99.99,99.99,99.99*30
$GPGSV,1,1,00*,V,N*64
$GPTXT,01,01,00,rxbuf alloc port 1*51
$GPRMC,,V,,,,,,,,,,N*53
$GPVTG,,,,,,,,,N*30
$GPGGA,,,,,,0,00,99.99,,,,,,*48
$GPGSA,A,1,,,,,,,,,,,,,99.99,99.99,99.99*30
$GPGSV,1,1,00*79N*64
$GPTXT,01,01,00,rxbuf alloc port 1*51
$GPRMC,,V,,,,,,,,,,N*53
$GPVTG,,,,,,,,,N*30
$GPGGA,,,,,,0,00,9,,99.99,99.99,99.99*30
$GPGSV,1,1,00*79
$GPGLL,,,,,,V,N*64
$GPTXT,01,01,00,rxbu$GPRMC,,V,,,,,,,,,,N*53
$GPVTG,,,,,,,,,N*30
$GPGGA,,,,,,0,00,99.99,,,,,,*48
$GPGSA,A,1,,,,,,,,,,,,,99.99,99.99,99.99*30
$GPGSV,1,1,GPGLL,,,,,,V,N*64
$GPTXT,01,01,00,rxbuf alloc port 1*51
$GPRMC,,V,,,,,,,,,,N*53
$GPVTG,,,,,,,,,N*30
$GPGGA,,,,,,0,00,99.99,,,,,,*48
$GPGSA,A,1,,,,,,,,,,,,,99.99,99.99,99.99*30
$GPGSV,1,1,00,,,,,V,N*64
$GPTXT,01,01,00,rxbuf alloc port 1*51
$GPRMC,,V,,,,,,,,,,N*53
$GPVTG,,,,,,,,,N*30
$GPGGA,,,,,,0,00,99.99,,,,,,*48
$GPGSA,A,1,,,,,,,,,,,,,99.99,99.99,99.99*30
$GPGSV,1,1,00*7$GPRMC,,V,,,,,,,,,,N*53
$GPVTG,,,,,,,,,N*30
$GPGGA,,,,,,0,00,99.99,,,,,,*48
$GPGSA,A,1,,,,,,,,,,,,,99.99,99.99,99.99*30
$GPGSV,179
$GPGLL,,,,,,V,N*64
$GPTXT,01,01,00,rxbuf alloc port 1*51
$GPRMC,,V,,,,,,,,,,N*53
$GPVTG,,,,,,,,,N*30
$GPGGA,,,,,,0,00,99.99,,,,,,*48
$GPGSA,A,1,,,,,,,,,,,,,99.99,99.99,99.99*30
$GPGSV,1,1GPGLL,,,,,,V,N*64
$GPTXT,01,01,00,rxbuf alloc port 1*51
$GPRMC,,V,,,,,,,,,,N*53
$GPVTG,,,,,,,,,N*30
$GPGGA,,,,,,0,00,99.99,,,,,,*48
$GPGSA,A,1,,,,,,,,,,,,,99.99,99.99,99.99*30
$GPGSV,1,1,00*7GPTXT,01,01,00,rxbuf alloc port 1*51
$GPRMC,,V,,,,,,,,,,N*53
$GPVTG,,,,,,,,,N*30
$GPGGA,,,,,,0,00,99.99,,,,,,*48
$GPGSA,A,1,,,,,,,,,,,,,99.99,99.99,99.99*30
$GPGSV,,rxbuf alloc port 1*51
$GPRMC,,V,,,,,,,,,,N*53
$GPVTG,,,,,,,,,N*30
$GPGGA,,,,,,0,00,99.99,,,,,,*48
$GPGSA,A,1,,,,,,,,,,,,,99.99,99.99,99.99*30
$GPGSV,1,1,00*V,N*64
$GPTXT,01,01,00,rxbuf alloc port 1*51
$GPRMC,,V,,,,,,,,,,N*53
$GPVTG,,,,,,,,,N*30
$GPGGA,,,,,,0,00,99.port 1*51
$GPRMC,,V,,,,,,,,,,N*53
$GPVTG,,,,,,,,,N*30
$GPGGA,,,,,,0,00,99.99,,,,,,*48
$GPGSA,A,1,,,,,,,,,,,,,99.99,99.99,99.99*30
$GPGSV,1,1,00LL,,,,,,V,N*64
$GPTXT,01,01,00,rxbuf alloc port 1*51
$GPRMC,,V,,,,,,,,,,N*53
$GPVTG,,,,,,,,,N*30
$GPGGA,,,,,,0,00,99.99,,,,,,*48
$GPGSA,A,1,,,,,,,,,,,,,99.99,99.99,99.99*30
$GPGSV,1,1,00*7,V,N*64
$GPTXT,01,01,00,rxbuf alloc port 1*51
$GPRMC,,V,,,,,,,,,,N*53
$GPVTG,,,,,,,,,N*30
$GPGGA,,,,,,0,00,99.99,,,,,,*48
$GPGSA,A,1,,,,,,,,,,,,,99.99,99.99,99.99*30
$GPGSV,1,1,0,,,,,,V,N*64
$GPTXT,01,01,00,rxbuf alloc port 1*51
$GPRMC,,V,,,,,,,,,,N*53
$GPVTG,,,,,,,,,N*30
$GPGGA,,,,,,0,00,99.99,,,,,,*48
$GPGSA,A,1,,,,,,,,,,,,,99.99,99.99,99.99*30
$GPGSV,1,1,00*79

$GPTXT,01,01,00,rxbuf alloc port 1*51
$GPRMC,,V,,,,,,,,,,N*53
$GPVTG,,,,,,,,,N*30
$GPGGA,,,,,,0,00,99.99,,,,,,*48
$GPGSA,A,1,,,,,,,,,,,,,99.99,99.99,99.99*30
$GPGSV,1,1,00*79
$GPTXT,01,01,00,rxbuf alloc port 1*51
$GPRMC,,V,,,,,,,,,,N*53
$GPVTG,,,,,,,,,N*30
$GPGGA,,,,,,0,00,99f alloc port 1*51
$GPRMC,,V,,,,,,,,,,N*53
$GPVTG,,,,,,,,,N*30
$GPGGA,,,,,,0,00,99.99,,,,,,*48
$GPGSA,A,1,,,,,,,,,,,,,99.99,99.99,99.99*30
$GPGSV,1,1,00LL,,,,,,V,N*64
$GPTXT,01,01,00,rxbuf alloc port 1*51
$GPRMC,,V,,,,,,,,,,N*53
$GPVTG,,,,,,,,,N*30
$GPGGA,,,,,,0,00,99.99,,,,,,*48
$GPGSA,A,1,,,,,,,,,,,,,99.99,99.99,99.99*30
$GPGSV,1,1,00*7,V,N*64
$GPTXT,01,01,00,rxbuf alloc port 1*51
$GPRMC,,V,,,,,,,,,,N*53
$GPVTG,,,,,,,,,N*30
$GPGGA,,,,,,0,00,99.99,,,,,,*48
$GPGSA,A,1,,,,,,,,,,,,,99.99,99.99,99.99*30
$GPGSV,1,1,0,,38,30,,,25*7C
$GPGLL,,,,,,V,N*64
$GPTXT,01,01,00,rxbuf alloc port 1*51
$GPRMC,,V,,,,,,,,,,N*53
$GPVTG,,,,,,,,,N*30
$GPGGA,,,,,,0,00,99.99,,,,,,*48
$GPGSA,A,1,,,,,,,,,,,,,99.99,99.99,99.99*30
$GPGSV,1,1,04,1,,40,30,,,25*75
$GPGLL,,,,,,V,N*64
$GPTXT,01,01,00,rxbuf alloc port 1*51
$GPRMC,,V,,,,,,,,,,N*53
$GPVTG,,,,,,,,,N*30
$GPGGA,,,,,,0,00,99.99,,,,,,*48
$GPGSA,A,1,,,,,,,,,,,,,99.99,99.99,99.99*30
$GPGSV,1,1,04,1,36,30,,,24*76
$GPGLL,,,,,,V,N*64
$GPTXT,01,01,00,rxbuf alloc port 1*51
$GPRMC,,V,,,,,,,,,,N*53
$GPVTG,,,,,,,,,N*30
$GPGGA,,,,,,0,00,964
$GPTXT,01,01,00,rxbuf alloc port 1*51
$GPRMC,,V,,,,,,,,,,N*53
$GPVTG,,,,,,,,,N*30
$GPGGA,,,,,,0,00,99.99,,,,,,*48
$GPGSA,A,1,,,,,,,,,,,,,99.99,99.99,99.99*30
$GPGSV,15,,,12,26,,,13,28,,,37,30,,,19*79
$GPGLL,,,,,,V,N*64
$GPTXT,01,01,00,rxbuf alloc $GPRMC,,V,,,,,,,,,,N*53
$GPVTG,,,,,,,,,N*30
$GPGGA,,,,,,0,00,99.99,,,,,,*48
$GPGSA,A,1,,,,,,,,,,,,,99.99,99.99,99.99*30
$GPGSV,2,1,07,28,15,,,09,17,,,38*77
$GPGSV,2,2,07,26,,,09,28,,,34,30,,,17*7B
$GPGLL,,,,,,V,N*6alloc port 1*51
$GPRMC,,V,,,,,,,,,,N*53
$GPVTG,,,,,,,,,N*30
$GPGGA,,,,,,0,00,99.99,,,,,,*48
$GPGSA,A,1,,,,,,,,,,,,,99.99,99.99,99.99*30
$GPGSV,2,134,13,,,27,15,,,08,17,,,38*7B
$GPGSV,2,2,05,28,,,38*7D
$GPGLL,,,,,,V,N*64
$GPTXt 1*51
$GPRMC,,V,,,,,,,,,,N*53
$GPVTG,,,,,,,,,N*30
$GPGGA,,,,,,0,00,99.99,,,,,,*48
$GPGSA,A,1,,,,,,,,,,,,,99.99,99.99,99.99*30
$GPGSV,1,1,04,17,,,32,28,,,37*7F
$GPGLL,,,,,,V,N*64
$GPTXT,01,01,00,rxbuf alloc port 1*51
$GPRMC,,V,,,,,,,,,,N*53
$GPVTG,,,,,,,,,N*30
$GPGGA,,,,,,0,00,99.99,,,,,,*48
$GPGSA,A,1,,,,,,,,,,,,,99.99,99.99,99.99*30
$GPGSV,1,1,04,05,33,28,,,38*7D
$GPGLL,,,,,,V,N*64
$GPTXT,01,01,00,rxbuf alloc port 1*51
$GPRMC,,V,,,,,,,,,,N*53
$GPVTG,,,,,,,,,N*30
$GPGGA,,,,,,0,00,99.99,,,,,,*48
$GPGSA,A,1,,,,,,,,,,,,,99.99,99.99,99.99*30
$GPGSV,1,1,04,0,,,27,28,,,37*76
$GPGLL,,,,,,V,N*64
$GPTXT,01,01,00,rxbuf alloc port 1*51
$GPRMC,,V,,,,,,,,,,N*53
$GPVTG,,,,,,,,,N*30
$GPGGA,,,,,,0,00,99.99,,,,,,*48
$GPGSA,A,1,,,,,,,,,,,,,99.99,99.99,99.99*30
$GPGSV,1,1,04,07,,,40,28,,,42*70
$GPGLL,,,,,,V,N*64
$GPTXT,01,01,00,rxbuf alloc port 1*51
$GPRMC,,V,,,,,,,,,,N*53
$GPVTG,,,,,,,,,N*30
$GPGGA,,,,,,0,00,99.99,,,,,,*48
$GPGSA,A,1,,,,,,,,,,,,,99.99,99.99,99.99*30
$GPGSV,1,1,04,17,,,41,28,,,39*7E
$GPGLL,,,,,,V,N*64
$GPTXT,01,01,00,rxbuf alloc port 1*51
$GPRMC,,V,,,,,,,,,,N*53
$GPVTG,,,,,,,,,N*30
$GPGGA,,,,,,0,00,99.99,,,,,,*48
$GPGSA,A,1,,,,,,,,,,,,,99.99,99.99,99.99*30
$GPGSV,1,1,04,7,,,38,28,,,42*78
$GPGLL,,,,,,V,N*64
$GPTXT,01,01,00,rxbuf alloc port 1*51
$GPTXT,01,01,00,rxbuf alloc port 1*51
$GPRMC,211144.96,V,,,,,,,,,,N*71
$GPVTG,,,,,,,,,N*30
$GPGGA,211144.96,,,,,0,00,99.99,,,,,,*6A
$GPGSA,A,1,,,,,,,,,,,,,99.99,99.99,99.99*305,,,30,13,,,21,17,,,38,28,,,41*7A
$GPGSV,2,2,05,30,,,37*7B
$GPGLL,,,,,211144.96,$GPTXT,01,01,00,rxbuf alloc port 1*51
$GPRMC,211146.00,V,,,,,,,,,,N*7C
$GPVTG,,,,,,,,,N*30
$GPGGA,211146.00,,,,,0,00,99.99,,,,,,*67
$GPGSA,A,1,,,,,,,,,,99.99,99.99,99.99*30
$GPGSV,2,1,06,05,,,31,07,,,25,13,,,20,17,,,38*76
$GPGS6
$GPGLL,,,,,211146.00,V,N*4B
$GPTXT,01,01,00,rxbuf alloc port 1*51
$GPRMC,211147.00,V,,,,,,,300814,,,N*73
$GPVTG,,,,,,,,,N*30
$GPGGA,211147.00,,,,,0,00,99.99,,,,,,*66
$GPGSA,A,1,,,,,,,99.99,99.99,99.99*30
$GPGSV,2,1,06,05,,,24,07,,,22,13,,,22,17,,,38*77
$GPGSV,
$GPGLL,,,,,211147.00,V,N*4A
$GPTXT,01,01,00,rxbuf alloc port 1*51
$GPRMC,211148.00,V,,,,,,,300814,,,N*7C
$GPVTG,,,,,,,,,N*30
$GPGGA,211148.00,,,,,0,00,99.99,,,,,,*69
$GPGSA,A,1,,,,,,,,,,,,,99.99,930
$GPGSV,2,1,06,05,,,26,07,,,21,13,,,23,17,,,39*76
$GPGSV,2,2,06,28,,,41,30,,,37$GPTXT,01,01,00,rxbuf alloc port 1*51
$GPRMC,211149.00,V,,,,,,,300814,,,N*7D
$GPVTG,,,,,,,,,N*30
$GPGGA,211149.00,,,,,0,00,99.99,,,,,,*68
$GPGSA,A,1,,,,,,,,,,,,,99.99,99.99*30
$GPGSV,2,1,06,05,,,26,07,,,22,13,,,26,17,,,39*70
$GPGSV,2,2,06,28,,211149.00,V,N*44
$GPTXT,01,01,00,rxbuf alloc port 1*51
$GPRMC,211150.00,V,,,,,,,300814,,,N*75
$GPVTG,,,,,,,,,N*30
$GPGGA,211150.00,,,,,0,00,99.99,,,,,,*60
$GPGSA,A,1,,,,,,,,,,,,,,99.99,99.99*30
$GPGSV,2,1,06,05,,,27,07,,,21,13,,,24,17,,,42*7C
$GPGSV,2,2,06,28*4C
$GPTXT,01,01,00,rxbuf alloc port 1*51
$GPRMC,211151.00,V,,,,,,,300814,,,N*74
$GPVTG,,,,,,,,,N*30
$GPGGA,211151.00,,,,,0,00,99.99,,,,,,*61
$GPGSA,A,1,,,,,,,,,,,,,99.99,99.99,9,05,05,,,35,13,,,22,17,,,40,28,,,43*71
$GPGSV,2,2,05,30,,,39*75
$GPGLL,,,,,211151$GPTXT,01,01,00,rxbuf alloc port 1*51
$GPRMC,211152.00,V,,,,,,,300814,,,N*77
$GPVTG,,,,,,,,,N*30
$GPGGA,211152.00,,,,,0,00,99.99,,,,,,*62
$GPGSA,A,1,,,,,,,,,,,,,99.99,99.99,9,05,05,,,39,13,,,21,17,,,33,28,,,37*79
$GPGSV,2,2,05,30,,,33*7F
$GPGLL,,,,,211152$GPTXT,01,01,00,rxbuf alloc port 1*51
$GPRMC,211153.00,V,,,,,,,300814,,,N*76
$GPVTG,,,,,,,,,N*30
$GPGGA,211153.00,,,,,0,00,99.99,,,,,,*63
,,,,,99.99,99.99,99.99*30
$GPGSV,2,1,05,05,,,41,13,,,24,17,,,36,28,,,37*76
$GPGSV,,,,211153.00,V,N*4F
$GPTXT,01,01,00,rxbuf alloc port 1*51
$GPRMC,211154.00,V,,,,,,,
$GPGSA,A,1,,,,,,,,,,,,,99.99,99.99,99.99*30
$GPGSV,2,1,05,05,,,41,13,,,30,17,,,3,30,,,30*7C
$GPGLL,,,,,211154.00,V,N*48
$GPTXT,01,01,00,rxbuf alloc port 1*51
$GPRMC,211155.00,V,,,,,,,300814,,,N*70
$GPVTG,,,,,,,,,N*30
$GPGGA,211155.00,,,,,0,00,99.99,,,,,,*65
$GPGSA,A,1,,,,,,,,,,,,,99.99,99.$GPGSV,2,1,05,05,,,42,13,,,30,17,,,37,28,,,35*73
$GPGSV,2,2,05,30,,,31*7D
$GPGLL,$GPTXT,01,01,00,rxbuf alloc port 1*51
$GPRMC,211156.00,V,,,,,,,300814,,,N*73
$GPVTG,,,,,,,,,N*30
$GPGGA,211156.00,,,,,0,00,99.99,,,,,,*66
$GPGSA,A,1,,,,,,,,,,99.99,99.99,99.99*30
$GPGSV,3,1,09,05,,,41,07,,,30,08,,,33,10,,,25*78
34,26,,,34,28,,,35*7E
$GPGSV,3,3,09,30,,,31*71
$GPGLL,,,,,211156.00,V,N*4A
$GPTXT,01,01,00,rxbuf alloc port 1*51
$GPRMC,211157.00,V,,,,,,,300814,,,N*72
$GPVTG,,,,,,,,,N*30
$GPGGA,211157.00,,,,,0,00,99.99,,,,,,*67
$GPGSA,A,1,,,,,,,,,,,,,99.99,99.99,V,3,1,09,05,,,43,07,,,29,08,,,30,10,,,27*73
$GPGSV,3,2,09,13,,,30,17,,,36,26,,,31,,,,39*79
$GPGLL,,,,,211157.00,V,N*4B
$GPTXT,01,01,00,rxbuf alloc port 1*51
$GPRMC,211158.00,V,,,,,,,3GSV,3,1,09,05,,,41,07,,,34,08,,,35,10,,,33*7D
$GPGSV,3,2,09,13,,,30,17,,,33,26,,,09,30,,,38*78
$GPGLL,,,,,211158.00,V,N*44
$GPTXT,01,01,00,rxbuf alloc port 1*51
$GPRMC,211159.00,V,,,,,,,300814,,,N*7C
$GPVTG,,,,,,,,,N*30
$GPGGA,211159.00,,,,,0,00,99.99,,,,,,*69
$GPGSA,A,1,,,,,,,,,99.99,99.99,99.99*30
$GPGSV,3,1,09,05,,,39,07,,,29,08,,,30,10,,,34*7C
$GPGSV,,,24,28,,,44*7E
$GPGSV,3,3,09,30,,,40*77
$GPGLL,,,,,211159.00,V,N*45
$GPTXT,01,01,00,rxbuf alloc port 1*51
$GPRMC,211200.00,V,,,,,,,300814,,,N*73
$GPVTG,,,,,,,,,N*30
$GPGGA,211200.00,,,,,0,00,99.99,,,,,,*66
$GPGSA,,,,,,,,,,,,99.99,99.99,99.99*30
$GPGSV,3,1,09,05,,,42,07,,,33,08,,,31,10,,,35*7B
,,44*7E
$GPGSV,3,3,09,30,,,42*75
$GPGLL,,,,,211200.00,V,N*4A
$GPTXT,01,01,00,rxbuf alloc port 1*51
$GPRMC,211201.00,V,,,,,,,300814,,,N*72
$GPVTG,,,,,,,,,N*30
$GPGGA,211201.00,,,,,0,00,99.99,,,,,,*67
$GPGSA,1,,,,,,,,,,,,,99.99,99.99,99.99*30
$GPGSV,3,1,09,05,,,43,07,,,34,08,,,36,10,,,35*7,,43,26,,,25,28,,,44*71
$GPGSV,3,3,09,30,,,41*76
$GPGLL,,,,,211201.00,V,N*4B
$GPTXT,01,01,00,rxbuf alloc port 1*51
$GPRMC,211202.00,V,,,,,,,3,,,,,*64
$GPGSA,A,1,,,,,,,,,,,,,99.99,99.99,99.99*30
$GPGSV,3,1,09,05,,,39,07,,,2,43,26,,,37,28,,,38*71
$GPGSV,3,3,09,30,,,38*78
$GPGLL,,,,,211202.00,V,N*48
$GPTXT,01,01,00,rxbuf alloc port 1*51
$GPRMC,211203.00,V,,,,,,,300814,,,N*70
$GPVTG,,,,,,,,,N*30
$GPGGA,211203.00,,,,,0,04,3.00,,,,,,*52
$GPGSA,A,1,30,28,05,17,,,,,,,,,3.16,3.0SV,3,1,09,05,29,288,40,07,,,27,08,,,33,10,,,33*41
$GPGSV,3,2,09,13,,,21,17,61,035,1*7E
$GPGSV,3,3,09,30,36,132,38*4D
$GPGLL,,,,,211203.00,V,N*49
$GPTXT,01,01,00,rxbuf alloc port 1*51
$GPRMC,211204.00,V,,,,,,,300814,,,N*77
$GPVTG,,,,,,,,,N*30
$GPGGA,211204.00,,,,,0,04,3.00,,,,,,*55
$GPGSA,A,1,30,28,05,17,,,,,,,,,31.00*0C
$GPGSV,3,1,11,05,29,288,38,07,,,26,08,,,35,10,,,33*40
$GPGSV,3,2,11,11,,,,,34*42
$GPGSV,3,3,11,28,47,173,42,30,36,132,38,51,21,279,39*4F
$GPGLL,,,,,211204$GPTXT,01,01,00,rxbuf alloc port 1*51
$GPRMC,211205.00,V,,,,,,,300814,,,N*76
$GPVTG,,,,,,,,,N*30
$GPGGA,211205.00,,,,,0,04,3.00,,,,,,*54
$GPGSA,A,1,30,28,05,17,,,,,,,,,3.16,3GSV,3,1,12,05,29,288,43,07,,,35,08,,,35,10,,,36*48
$GPGSV,3,2,12,11,,,35,13,,,24,$GPTXT,01,01,00,rxbuf alloc port 1*51
$GPRMC,211206.00,V,,,,,,,300814,,,N*75
$GPVTG,,,,,,,,,N*30
$GPGGA,211206.00,,,,,0,04,3.00,,,,,,*57
$GPGSA,A,1,30,28,05,17,,,,,,,,,3.16,GSV,3,1,12,05,29,288,42,07,,,31,08,,,34,10,,,33*49
$GPGSV,3,2,12,11,,,35,13,,,32,1PGSV,3,3,12,28,47,173,42,30,36,132,39,33,49,066,32,51,21,279,34*7C
$GPGLL,,,,,2112$GPTXT,01,01,00,rxbuf alloc port 1*51
$GPRMC,211207.00,V,,,,,,,300814,,,N*74
$GPVTG,,,,,,,,,N*30
$GPGGA,211207.00,,,,,0,04,3.00,,,,,,*56
$GPGSA,A,1,30,28,05,17,,,,,,,,SV,3,1,12,05,29,288,40,07,,,31,08,,,33,10,,,32*4D
$GPGSV,3,2,12,11,,,36,13,,,33,17,PGSV,3,3,12,28,47,173,42,30,36,132,39,33,49,066,32,51,21,279,34*7C
$GPGLL,,,,,2112$GPTXT,01,01,00,rxbuf alloc port 1*51
$GPRMC,211208.00,V,,,,,,,300814,,,N*7B
$GPVTG,,,,,,,,,N*30
$GPGGA,211208.00,,,,,0,04,3.00,,,,,,*59
$GPGSA,A,1,30,28,05,17,,,,,,,,,3.16C
$GPGSV,3,1,12,05,29,288,40,07,,,32,08,,,32,10,,,30*4D
$GPGSV,3,2,12,11,,,36,13,,2*48
$GPGSV,3,3,12,28,47,173,42,30,36,132,39,33,49,066,32,51,21,279,34*7C
$GPGLL,$GPTXT,01,01,00,rxbuf alloc port 1*51
$GPRMC,211209.00,V,,,,,,,300814,,,N*7A
$GPVTG,,,,,,,,,N*30
$GPGGA,211209.00,,,,,0,04,3.00,,,,,,*58
$GPGSA,A,1,30,28,05,17,,,,,,,,,3.16$GPGSV,3,1,12,05,29,288,40,07,,,31,08,,,31,10,,,29*45
$GPGSV,3,2,12,11,,,37,13,,,3$GPGSV,3,3,12,28,47,173,42,30,36,132,39,33,49,066,32,51,21,279,33*7B
$GPGLL,,,,,211$GPTXT,01,01,00,rxbuf alloc port 1*51
$GPRMC,211210.00,V,,,,,,,300814,,,N*72
$GPVTG,,,,,,,,,N*30
$GPGGA,211210.00,,,,,0,04,3.00,,,,,,*50
$GPGSA,A,1,30,28,05,17,,,,,,,,,3.1605,29,288,41,07,,,31,08,,,32,10,,,30*4F
$GPGSV,3,2,12,11,,,37,13,,,33,17,61,035,42,47,173,42,30,36,132,39,33,49,066,33,51,21,279,33*7A
$GPGLL,,,,,211210.00,V,N*4B
$GPTXT,01,01,00,rxbuf alloc port 1*51
$GPRMC,211211.00,V,,,,,,,300814,,,N*73
$GPVTG,,,,,,,,,N*30
$GPGGA,211211.00,,,,,0,04,3.00,,,,,,*51
$GPGSA,A,1,30,28,05,17,,,,,,,,,3.16$GPGSV,3,1,12,05,29,288,41,07,,,31,08,,,31,10,,,30*4C
$GPGSV,3,2,12,11,,,37,13,,,3$GPGSV,3,3,12,28,47,173,42,30,36,132,39,33,49,066,32,51,21,279,33*7B
$GPGLL,,,,,21$GPTXT,01,01,00,rxbuf alloc port 1*51
$GPRMC,211212.00,V,,,,,,,300814,,,N*70
$GPVTG,,,,,,,,,N*30
$GPGGA,211212.00,,,,,0,04,3.00,,
$GPGSA,A,1,30,28,05,17,,,,,,,,,3.16,3.00,1.00*0C
$GPGSV,3,1,12,05,29,288,41,07,,,3,3,2,12,11,,,37,13,,,33,17,61,035,42,26,,,33*48
$GPGSV,3,3,12,28,47,173,42,30,36,19,33*7A
$GPGLL,,,,,211212.00,V,N*49
$GPTXT,01,01,00,rxbuf alloc port 1*51
$GPRMC,211213.00,V,,,,,,,300814,,,N*71
$GPVTG,,,,,,,,,N*30
$GPGGA,211213.00,,,,,0,04,3.00,,,,,,*53
$GPGSA,A,1,30,28,05,17,,,,,,,,,3.16,3.13,,,33,17,61,035,42,26,,,32*46
$GPGSV,3,3,12,28,47,173,43,30,36,132,39,33,49,066213.00,V,N*48
$GPTXT,01,01,00,rxbuf alloc port 1*51
$GPRMC,211214.00,V,,,,,,,300814,,,N*76
$GPVTG,,,,,,,,,N*30
$GPGGA,2.00,,,,,0,04,3.00,,,,,,*54
$GPGSA,A,1,30,28,05,17,,,,,,,,,3.16,3.00,1.00*0C
$GPG,31,10,,,31*4C
$GPGSV,3,2,12,11,,,38,13,,,34,17,61,035,42,26,,,32*41
$GPGSV,3,3,16,33,51,21,279,33*7A
$GPGLL,,,,,211214.00,V,N*4F
$GPTXT,01,01,00,rxbuf alloc port 1*51
$GPRMC,211215.00,V,,,,,,,300814,,,N*77
$GPVTG,,,,,,,,,N*30
$GPGGA,2,,32*43
$GPGSV,4,2,13,11,,,37,12,,,22,13,,,34,17,61,035,42*4E
$GPGSV,4,3,13,26,,,066,33*42
$GPGSV,4,4,13,51,21,279,34*47
$GPGLL,,,,,211215.00,V,N*4E
$GPTXT,01,01,00,rxbuf alloc port 1*51
$GPRMC,211216.00,V,,,,,,,300814,,,N*74
$GPVTG,,,,,,,,,N*30
$GPGGA,211216.00,,,,,0,04,,,,,*56
$GPGSA,A,1,30,28,05,17,,,,,,,,,3.16,3.00,1.00*0C
$GPGSV,3,1,12,05,29,28GPGSV,3,2,12,11,,,37,13,,,34,17,61,035,42,26,,,32*4E
$GPGSV,3,3,12,28,47,173,41,30*70
$GPGLL,,,,,211216.00,V,N*4D
$GPTXT,01,01,00,rxbuf alloc port 1*51
$GPRMC,211217.00,V,,,,,,,300814,,,N*75
$GPVTG,,,,,,,,,N*30
$GPGGA,217.00,,,,,0,04,3.00,,,,,,*57
$GPGSA,A,1,30,28,05,17,,,,,,,,,3.16,3.00,1.00*0C
$08,,,30,10,,,31*47
$GPGSV,3,2,12,11,,,36,13,,,35,17,61,035,42,26,,,32*4E
$GPGSV,39,066,34,51,21,279,35*76
$GPGLL,,,,,211217.00,V,N*4C
$GPTXT,01,01,00,rxbuf alloc port 1*51
$GPRMC,211218.00,V,,,,,,,300814,,,N*7A
$GPVTG,,,,,,,,,N*30
$GPGGA,211218.00,,,,,0,00,,,,,,*58
$GPGSA,A,1,30,28,05,17,,,,,,,,,3.16,3.00,1.00*0C
$GPGSV,3,1,12,05,292,11,,,36,13,,,35,17,61,036,42,26,,,32*4D
$GPGSV,3,3,12,28,47,173,41,30,36,132,40,$GPTXT,01,01,00,rxbuf alloc port 1*51
$GPRMC,211219.00,V,,,,,,,300814,,,N*7B
$GPVTG,,,,,,,,,N*30
$GPGG1219.00,,,,,0,04,3.00,,,,,,*59
$GPGSA,A,1,30,28,05,17,,,,,,,,,3.16,3.00,1.00*0C
,08,,,28,10,,,30*40
$GPGSV,3,2,12,11,,,35,13,,,35,17,61,036,42,26,,,31*4D
$GPGSV,,49,066,33,51,21,279,35*72
$GPGLL,,,,,211219.00,V,N*42
$GPTXT,01,01,00,rxbuf alloc port 1*51
$GPRMC,211220.00,V,,,,,,,300814,,,N*71
$GPVTG,,,,,,,,,N*30
$GPGGA,2110.00,,,,,0,04,3.00,,,,,,*53
$GPGSA,A,1,30,28,05,17,,,,,,,,,3.16,3.00,1.00*0C
$GPG27,10,,,29*47
$GPGSV,3,2,12,11,,,35,13,,,35,17,61,036,42,26,,,31*4D
$GPGSV,3,3,1066,33,51,21,279,35*72
$GPGLL,,,,,211220.00,V,N*48
$GPTXT,01,01,00,rxbuf alloc port 1*51
$GPRMC,211221.00,V,,,,,,,300814,,,N*70
$GPVTG,,,,,,,,,N*30
$GPGGA,211221.00,04,3.00,,,,,,*52
$GPGSA,A,1,30,28,05,17,,,,,,,,,3.16,3.00,1.00*0C
$GPGSV,3,1,12*47
$GPGSV,3,2,12,11,,,34,13,,,36,17,61,036,43,26,,,31*4E
$GPGSV,3,3,12,28,47,17PGLL,,,,,211221.00,V,N*49
$GPTXT,01,01,00,rxbuf alloc port 1*51
$GPRMC,211222.00,A,1549.89335,S,04754.63911,W,0.018,,300814,,,A*7B
$GPVTG,,,0.018,N,0.033,K,A*2A
$GPGGA,211222.00,1549.89335,S,04754.63911,W,1,04,2.01,1050.8,05,17,,,,,,,,,5.06,2.01,4.65*0F
$GPGSV,3,1,12,05,29,288,42,07,,,25,08,,,20,10,,,,17,61,036,42,26,,,32*4E
$GPGSV,3,3,12,28,47,173,43,30,36,132,40,33,49,066,34,51,4754.63911,W,211222.00,A,A*65
$GPTXT,01,01,00,rxbuf alloc port 1*51
$GPRMC,211223.00,A,1549.89342,S,04754.63924,W,0.031,,300814,,,A*77
$GP,,T,,M,0.031,N,0.057,K,A*23
$GPGGA,211223.00,1549.89342,S,04754.63924,W,1,04,2.0130,28,05,17,,,,,,,,,5.06,2.01,4.65*0F
$GPGSV,3,1,12,05,29,288,42,07,,,24,08,,,16,13,,,35,17,61,036,42,26,,,32*4E
$GPGSV,3,3,12,28,47,173,43,30,36,132,40,33,49,06689342,S,04754.63924,W,211223.00,A,A*62
$GPTXT,01,01,00,rxbuf alloc port 1*51
$GPRMC,211224.00,A,1549.89365,S,04754.63920,W,0.446,,300814,,,A*75
$GPVTG,,T,,M,00.826,K,A*29
$GPGGA,211224.00,1549.89365,S,04754.63920,W,1,04,2.01,1050.0,M,-11.94.65*0F
$GPGSV,3,1,10,05,29,288,36,08,,,36,10,,,26,11,,,31*49
$GPGSV,3,2,10,13,,,43*75
$GPGSV,3,3,10,30,36,132,40,33,49,066,37*73
$GPGLL,1549.89365,S,04754.63920$GPTXT,01,01,00,rxbuf alloc port 1*51
$GPRMC,211225.00,A,1549.89371,S,04754.63929,W,0.647,,300814,,,A*7B
$GPVT,T,,M,0.647,N,1.198,K,A*27
$GPGGA,211225.00,1549.89371,S,04754.63929,W,1,04,2.01,18,05,17,,,,,,,,,5.06,2.01,4.65*0F
$GPGSV,3,1,11,05,29,288,42,08,,,35,10,,,35,11,,,6,46,26,,,37,28,47,173,47*74
$GPGSV,3,3,11,30,36,132,44,33,49,066,39,51,21,279,40*A*69
$GPTXT,01,01,00,rxbuf alloc port 1*51
$GPRMC,211226.00,A,1549.89367,S,04754.63914,W,0.386,,300814,,,A*79
$GPG,,T,,M,0.386,N,0.714,K,A*2C
$GPGGA,211226.00,1549.89367,S,04754.63914,W,1,04,2.0130,28,05,17,,,,,,,,,5.06,2.01,4.65*0F
$GPGSV,3,1,11,05,29,288,44,08,,,41,10,,,31,PGSV,3,3,11,30,36,132,38,33,49,066,30,51,21,279,39*4B
$GPGLL,1549.89367,S,04754.63$GPTXT,01,01,00,rxbuf alloc port 1*51
$GPRMC,211227.00,A,1549.89343,S,04754.63930,W,0.214,,300814,,,A*72
$GPVTG,,0.396,K,A*28
$GPGGA,211227.00,1549.89343,S,04754.63930,W,1,04,2.01,1051.3,M,-11.,,,,,,,,5.06,2.01,4.65*0F
$GPGSV,3,1,12,05,29,288,40,07,,,31,08,,,37,10,,,31*4A
$1,036,27,26,,,37*42
$GPGSV,3,3,12,28,47,173,39,30,36,132,43,33,49,066,34,51,21,2794.63930,W,211227.00,A,A*62
$GPTXT,01,01,00,rxbuf alloc port 1*51
$GPRMC,211228.00,A,1549.89315,S,04754.63950,W,0.290,,300814,,,A*74
$GPVTG,,M,0.290,N,0.537,K,A*29
$GPGGA,211228.00,1549.89315,S,04754.63950,W,1,04,2.01,1052.,17,,,,,,,,,5.06,2.01,4.64*0E
$GPGSV,3,1,12,05,29,288,40,07,,,25,08,,,30,10,,,31*,41*4E
$GPGSV,3,3,12,28,47,173,43,30,36,132,39,33,49,066,38,51,21,279,40*74
$GPGL.00,A,A*68
$GPTXT,01,01,00,rxbuf alloc port 1*51
$GPRMC,211229.00,A,1549.89295,S,04754.63974,W,0.057,,300814,,,A*73
$GPVTT,,M,0.057,N,0.105,K,A*25
$GPGGA,211229.00,1549.89295,S,04754.63974,W,1,04,2.01,10,28,05,17,,,,,,,,,5.06,2.01,4.64*0E
$GPGSV,3,1,12,05,29,288,35,07,,,29,08,,,25,10,,36,17,61,036,34,26,,,41*4E
$GPGSV,3,3,12,28,47,173,47,30,36,132,42,33,49,066,36,504754.63974,W,211229.00,A,A*66
$GPTXT,01,01,00,rxbuf alloc port 1*51
$GPRMC,211230.00,A,1549.89282,S,04754.63987,W,0.149,,300814,,,A*7F
$GPVTG,T,,M,0.149,N,0.277,K,A*2D
$GPGGA,211230.00,1549.89282,S,04754.63987,W,1,04,2.01,1,3,30,28,05,17,,,,,,,,,5.06,2.01,4.64*0E
$GPGSV,4,1,13,05,29,288,36,07,,,29,08,,,234,13,,,36,17,61,036,34,18,,,22*47
$GPGSV,4,3,13,26,,,42,28,47,173,48,30,36,132,43,21,279,37*44
$GPGLL,1549.89282,S,04754.63987,W,211230.00,A,A*64
$GPTXT,01,01,00,rxbuf alloc port 1*51
$GPRMC,211231.00,A,1549.89279,S,04754.63995,W,0.034,,300814,,,A*72
$GPVTG,,T,,M,0.034,N,0.064,K,A*26
$GPGGA,211231.00,1549.89279,S,04754.63995,W,1,GSA,A,3,30,28,05,17,,,,,,,,,5.06,2.01,4.64*0E
$GPGSV,3,1,12,05,29,288,36,07,,,29,0,12,11,,,34,13,,,36,17,61,036,34,26,,,41*49
$GPGSV,3,3,12,28,47,173,48,30,36,132,4LL,1549.89279,S,04754.63995,W,211231.00,A,A*62
$GPTXT,01,01,00,rxbuf alloc port 1*51
$GPRMC,211232.00,A,1549.89282,S,04754.64014,W,0.024,,300814,,,A*3
$GPVTG,,T,,M,0.024,N,0.044,K,A*25
$GPGGA,211232.00,1549.89282,S,04754.64014,W,15,17,,,,,,,,,5.06,2.01,4.64*0E
$GPGSV,4,1,13,05,29,288,35,07,,,30,08,,,20,10,,,29*,61,036,33,19,,,26*45
$GPGSV,4,3,13,26,,,41,28,47,173,48,30,36,132,44,33,49,066,345
$GPGLL,1549.89282,S,04754.64014,W,211232.00,A,A*62
$GPTXT,01,01,00,rxbuf alloc port 1*51
$GPRMC,211233.00,A,1549.89286,S,04754.64025,W,0.199,,300814,,,A*73
$GPVTG,,T,,M,0.1368,K,A*2F
$GPGGA,211233.00,1549.89286,S,04754.64025,W,1,04,2.02,1057.3,M,-11.9,M,5.06,2.02,4.64*0D
$GPGSV,3,1,12,05,29,288,35,07,,,31,08,,,18,10,,,28*4D
$GPGSV,3$GPTXT,01,01,00,rxbuf alloc port 1*51
$GPRMC,211234.00,A,1549.89290,S,04754.64037,W,0.071,,300814,,,A*77
$GPV,,M,0.071,N,0.131,K,A*26
$GPGGA,211234.00,1549.89290,S,04754.64037,W,1,04,2.02,10505,17,,,,,,,,,5.06,2.02,4.64*0D
$GPGSV,3,1,12,05,29,288,35,07,,,31,08,,,20,10,,,287,61,036,33,26,,,41*4E
$GPGSV,3,3,12,28,47,173,49,30,36,132,44,33,49,066,38,51,21754.64037,W,211234.00,A,A*66
$GPTXT,01,01,00,rxbuf alloc port 1*51
$GPRMC,211235.00,A,1549.89294,S,04754.64050,W,0.094,,300814,,,A*78
$GPVTG,,T,,M,0.094GA,211235.00,1549.89294,S,04754.64050,W,1,04,2.02,1058.6,M,-11.9,M,,*4D
$GPGSA,A,4*0D
$GPGSV,3,1,12,05,29,288,34,07,,,32,08,,,25,10,,,28*41
$GPGSV,3,2,12,11,,,35
$GPGSV,3,3,12,28,47,173,49,30,36,132,44,33,49,066,38,51,21,279,36*75
$GPGLL,1549.A*62
$GPTXT,01,01,00,rxbuf alloc port 1*51
$GPRMC,211236.00,A,1549.89295,S,04754.64057,W,0.085,,300814,,,A*7D
$G,T,,M,0.085,N,0.158,K,A*22
$GPGGA,211236.00,1549.89295,S,04754.64057,W,1,04,2.02,18,05,17,,,,,,,,,5.06,2.02,4.64*0D
$GPGSV,4,1,13,05,29,288,35,07,,,32,08,,,28,10,,,20,,,20*48
$GPGSV,4,3,13,26,,,40,28,47,173,48,30,36,132,43,33,49,066,38*4B
$GPGS$GPTXT,01,01,00,rxbuf alloc port 1*51
$GPRMC,211237.00,A,1549.89295,S,04754.64061,W,0.035,,300814,,,A*GPGGA,211237.00,1549.89295,S,04754.64061,W,1,04,2.02,1059.6,M,-11.9,M,,*4D
$GPGSA,4.64*0D
$GPGSV,3,1,12,05,29,288,35,07,,,33,08,,,33,10,,,27*49
$GPGSV,3,2,12,11,,,*4E
$GPGSV,3,3,12,28,47,173,48,30,36,132,44,33,49,066,38,51,21,279,36*74
$GPGLL,1.00,A,A*63
$GPTXT,01,01,00,rxbuf alloc port 1*51
$GPRMC,211238.00,A,1549.89296,S,04754.64065,W,0.022,,300814,,,A*7C
$GPVTG,,T,,M,0.022,N,0.041,K,A*26
$GPGGA,211238.00,1549.89296,S,04754.64065,W,1,$GPGSA,A,3,30,28,05,17,,,,,,,,,5.06,2.02,4.64*0D
$GPGSV,3,1,12,05,29,288,35,07,,,312,11,,,35,13,,,37,17,61,036,33,26,,,40*4F
$GPGSV,3,3,12,28,47,173,48,30,36,132,43PGLL,1549.89296,S,04754.64065,W,211238.00,A,A*6B
$GPTXT,01,01,00,rxbuf alloc port 1*51
$GPRMC,211239.00,A,1549.89298,S,04754.64068,W,0.028,,300814,,,A*74
$GPVTG,,T,0.028,N,0.052,K,A*2E
$GPGGA,211239.00,1549.89298,S,04754.64068,W,1,04,2.02,1060.6,06,2.02,4.64*0D
$GPGSV,4,1,13,05,29,288,36,07,,,34,08,,,34,10,,,26*4D
$GPGSV,4,2,,,,28*47
$GPGSV,4,3,13,26,,,41,28,47,173,49,30,36,132,44,33,49,066,38*4C
$GPGSV,4$GPTXT,01,01,00,rxbuf alloc port 1*51
$GPRMC,211240.00,A,1549.89303,S,04754.64070,W,0.123,,300814,,,A*7A
$GPVTG,,T,,M,0N,0.227,K,A*24
$GPGGA,211240.00,1549.89303,S,04754.64070,W,1,04,2.02,1061.0,M,-11,,,,,,,,5.06,2.02,4.64*0D
$GPGSV,3,1,12,05,29,288,36,07,,,34,08,,,36,10,,,26*49
$36,34,26,,,41*49
$GPGSV,3,3,12,28,47,173,49,30,36,132,44,33,49,066,38,51,21,279,36A,A*6D
$GPTXT,01,01,00,rxbuf alloc port 1*51
$GPRMC,211241.00,A,1549.89305,S,04754.64069,W,0.061,,300814,,,A*72
$GPVTG,,T,,M,0.00.112,K,A*26
$GPGGA,211241.00,1549.89305,S,04754.64069,W,1,04,2.02,1061.3,M,-11.9,,,5.06,2.02,4.64*0D
$GPGSV,4,1,13,05,29,288,35,07,,,32,08,,,36,10,,,25*49
$GPGSV,0,,,24*4A
$GPGSV,4,3,13,26,,,40,28,47,173,47,30,36,132,43,33,49,066,37*4B
$GPGSV,.89305,S,04754.64069,W,211241.00,A,A*62
$GPTXT,01,01,00,rxbuf alloc port 1*51
$GPRMC,211242.00,A,1549.89304,S,04754.64066,W,0.061,,300814,,,A*7F
$GPVTG,,.061,N,0.113,K,A*27
$GPGGA,211242.00,1549.89304,S,04754.64066,W,1,04,2.02,1061.7,M,,,,,,,,,5.06,2.02,4.64*0D
$GPGSV,4,1,13,05,29,288,36,07,,,31,08,,,37,10,,,23*4E
,036,34,20,,,19*45
$GPGSV,4,3,13,26,,,40,28,47,173,48,30,36,132,43,33,49,066,38*4B$GPTXT,01,01,00,rxbuf alloc port 1*51
$GPRMC,211243.00,A,1549.89308,S,04754.64064,W,0.064,,300814,,,A*75$GPVTG,,T,,M,0.064,N,0.119,K,A*28
$GPGGA,211243.00,1549.89308,S,04754.64064,W,1,0,17,,,,,,,,,5.06,2.02,4.64*0D
$GPGSV,4,1,14,05,29,288,36,07,,,31,08,,,37,10,,,23*461,036,34,20,,,16*4D
$GPGSV,4,3,14,22,,,25,26,,,40,28,47,173,48,30,36,132,43*7D
$9,36*7B
$GPGLL,1549.89308,S,04754.64064,W,211243.00,A,A*60
$GPTXT,01,01,00,rxbuf alloc port 1*51
$GPRMC,211244.00,A,1549.89310,S,04754.64061,W,0.071,,300814,,,A*7A
$GPVTG,,T,,M,0.071,K,A*26
$GPGGA,211244.00,1549.89310,S,04754.64061,W,1,04,2.02,1062.3,M,-11.9,M,,*06,2.02,4.64*0D
$GPGSV,4,1,13,05,29,288,36,07,,,30,08,,,38,10,,,22*41
$GPGSV,4,2,33,49,066,38*4B
$GPGSV,4,4,13,51,21,279,36*45
$GPGLL,1549.89310,S,04754.64061,W$GPTXT,01,01,00,rxbuf alloc port 1*51
$GPRMC,211245.00,A,1549.89312,S,04754.64063,W,0.026,,300814,,,A*79
$GPVTG,,T,,M,0.026,N,0.047,K,A*24
$GPGGA,211245.00,1549.89312,S,04754.64063M,,*4C
$GPGSA,A,3,30,28,05,17,,,,,,,,,5.06,2.02,4.64*0D
$GPGSV,4,1,13,05,29,288,GPGSV,4,2,13,11,,,37,13,,,36,17,61,036,35,23,,,28*47
$GPGSV,4,3,13,26,,,40,28,47,1$GPTXT,01,01,00,rxbuf alloc port 1*51
$GPRMC,211246.00,A,1549.89313,S,04754.64063,W,0.040,,300814,,,A*7B
$GPVTG,,T,,M,0.040,K,A*24
$GPGGA,211246.00,1549.89313,S,04754.64063,W,1,04,2.02,1062.9,M,-11.9,M,,*46,2.02,4.64*0D
$GPGSV,3,1,12,05,29,288,35,07,,,29,08,,,38,10,,,22*4C
$GPGSV,3,2,,,,40*4A
$GPGSV,3,3,12,28,47,173,48,30,36,132,43,33,49,066,38,51,21,279,36*73
$GP6.00,A,A*68
$GPTXT,01,01,00,rxbuf alloc port 1*51
$GPRMC,211247.00,A,1549.89313,S,04754.64060,W,0.056,,300814,,,A*7E
$GPVTG,,T,,M,0N,0.103,K,A*22
$GPGGA,211247.00,1549.89313,S,04754.64060,W,1,04,2.02,1062.9,M,-112,4.64*0D
$GPGSV,4,1,13,05,29,288,35,07,,,29,08,,,38,10,,,23*4B
$GPGSV,4,2,13,1149
$GPGSV,4,3,13,26,,,40,28,47,173,48,30,36,132,43,33,49,066,38*4B
$GPGSV,4,4,133,S,04754.64060,W,211247.00,A,A*6A
$GPTXT,01,01,00,rxbuf alloc port 1*51
$GPRMC,211248.00,A,1549.89315,S,04754.64058,W,0.078,,300814,,,A*70
$GPVTG,89315,S,04754.64058,W,1,04,2.02,1063.3,M,-11.9,M,,*4A
$GPGSA,A,3,30,28,05,17,,,,,,1,11,05,29,288,36,08,,,38,10,,,24,11,,,37*42
$GPGSV,3,2,11,13,,,37,17,61,036,34,2,11,30,36,132,43,33,49,066,38,51,21,279,35*43
$GPGLL,1549.89315,S,04754.64058,W,21$GPTXT,01,01,00,rxbuf alloc port 1*51
$GPRMC,211249.00,A,1549.89318,S,04754.64057,W,0.068,,300814,,,A*72
$GPVTG,,T,,M,0.067,K,A*29
$GPGGA,211249.00,1549.89318,S,04754.64057,W,1,04,2.02,1063.5,M,-11.9,M,,5.06,2.02,4.63*0A
$GPGSV,3,1,12,05,29,288,35,07,,,26,08,,,39,10,,,25*45
$GPGSV,3,6,,,40*4D
$GPGSV,3,3,12,28,47,173,48,30,36,132,43,33,49,066,38,51,21,279,36*73
$G49.00,A,A*6B
$GPTXT,01,01,00,rxbuf alloc port 1*51
$GPRMC,211250.00,A,1549.89319,S,04754.64056,W,0.073,,300814,,,A*70
$GPVTG,,.073,N,0.135,K,A*20
$GPGGA,211250.00,1549.89319,S,04754.64056,W,1,04,2.02,1063.6,M,,,,,,,,,5.06,2.02,4.63*0A
$GPGSV,3,1,12,05,29,288,35,07,,,25,08,,,38,10,,,25*47
,036,33,26,,,40*4C
$GPGSV,3,3,12,28,47,173,49,30,36,132,43,33,49,066,38,51,21,279,56,W,211250.00,A,A*63
$GPTXT,01,01,00,rxbuf alloc port 1*51
$GPRMC,211251.00,A,1549.89318,S,04754.64055,W,0.068,,300814,,,A*79
$GPVTG,,T,,M,0N,0.126,K,A*28
$GPGGA,211251.00,1549.89318,S,04754.64055,W,1,04,2.02,1063.7,M,-1102,4.63*0A
$GPGSV,4,1,13,05,29,288,35,07,,,24,08,,,39,10,,,25*41
$GPGSV,4,2,13,114B
$GPGSV,4,3,13,26,,,40,28,47,173,49,30,36,132,43,33,49,066,38*4A
$GPGSV,4,4,13,$GPTXT,01,01,00,rxbuf alloc port 1*51
$GPRMC,211252.00,A,1549.89316,S,04754.64056,W,0.052,,300814,,,A*7E
$GPVT,M,0.052,N,0.096,K,A*2B
$GPGGA,211252.00,1549.89316,S,04754.64056,W,1,04,2.02,10635,17,,,,,,,,,5.06,2.02,4.63*0A
$GPGSV,3,1,12,05,29,288,35,07,,,24,08,,,39,10,,,24,17,61,036,32,26,,,40*4C
$GPGSV,3,3,12,28,47,173,49,30,36,132,43,33,49,066,38,51,2.00,A,A*6E
$GPTXT,01,01,00,rxbuf alloc port 1*51
$GPRMC,211253.00,A,1549.89315,S,04754.64055,W,0.036,,300814,,,A*7D
$GPVTG,,T,,M,0.067,K,A*27
$GPGGA,211253.00,1549.89315,S,04754.64055,W,1,04,2.02,1064.1,M,-11.9,M,,5.05,2.02,4.63*09
$GPGSV,4,1,13,05,29,288,35,07,,,24,08,,,39,10,,,25*41
$GPGSV,426,,,40*4B
$GPGSV,4,3,13,28,47,173,49,30,36,132,44,33,49,066,38,39,08,085,*72
$GP549.89315,S,04754.64055,W,211253.00,A,A*6F
$GPTXT,01,01,00,rxbuf alloc port 1*51
$GPRMC,211254.00,A,1549.89315,S,04754.64056,W,0.022,,300814,,,A*7C
$GPVTG,,T,,M,0.022,K,A*27
$GPGGA,211254.00,1549.89315,S,04754.64056,W,1,04,2.02,1064.1,M,-11.9,M,,*4.05,2.02,4.63*09
$GPGSV,4,1,13,05,29,288,34,07,,,23,08,,,39,10,,,25*47
$GPGSV,4,2,,40*4C
$GPGSV,4,3,13,28,47,173,48,30,36,132,44,33,49,066,38,39,08,085,*73
$GPGS$GPTXT,01,01,00,rxbuf alloc port 1*51
$GPRMC,211255.00,A,1549.89316,S,04754.64058,W,0.046,,300814,,,A*72
$GPVTG,,M,0.046,N,0.084,K,A*2D
$GPGGA,211255.00,1549.89316,S,04754.64058,W,1,04,2.02,1064.05,2.02,4.63*09
$GPGSV,4,1,13,05,29,288,34,07,,,22,08,,,39,10,,,25*46
$GPGSV,4,2,36,132,43,33,49,066,38,39,08,085,*74
$GPGSV,4,4,13,51,21,279,35*46
$GPGLL,1549.8A*67
$GPTXT,01,01,00,rxbuf alloc port 1*51
$GPRMC,211256.00,A,1549.89315,S,04754.64059,W,0.015,,300814,,,A*75
$GPVTG,,T,,M,0.015,N,0.028,K,A*2D
$GPGGA,211256.00,1549.89315,S,04754.6405,M,,*43
$GPGSA,A,3,30,28,05,17,,,,,,,,,5.05,2.02,4.63*09
$GPGSV,4,1,13,05,29,288$GPGSV,4,2,13,11,,,37,13,,,37,17,61,036,34,26,,,40*4C
$GPGSV,4,3,13,28,47,173,48,3,4,13,51,21,279,35*46
$GPGLL,1549.89315,S,04754.64059,W,211256.00,A,A*66
$GPTXT,01,01,00,rxbuf alloc port 1*51
$GPRMC,211257.00,A,1549.89314,S,04754.64058,W,0.007,,300814,,,A*77
$GPG,,T,,M,0.007,N,0.012,K,A*27
$GPGGA,211257.00,1549.89314,S,04754.64058,W,1,04,2.02,30,28,05,17,,,,,,,,,5.05,2.02,4.63*09
$GPGSV,4,1,13,05,29,288,35,07,,,21,08,,,3913,,,37,17,61,036,34,26,,,40*4C
$GPGSV,4,3,13,28,47,173,48,30,36,132,44,33,49,066$GPTXT,01,01,00,rxbuf alloc port 1*51
$GPRMC,211258.00,A,1549.89357,S,04754.64108,W,0.076,,300814,,,A*7D
$GPVTG,26
$GPGGA,211258.00,1549.89357,S,04754.64108,W,1,09,0.91,1066.2,M,-11.9,M,,*48
$1,1.47*09
$GPGSV,4,1,14,05,29,288,35,07,,,22,08,14,104,39,10,23,345,24*42
$GPGSV17,61,036,33,26,39,211,40*78
$GPGSV,4,3,14,27,,,26,28,47,173,48,30,36,132,44,33,45,,51,21,279,36*7D
$GPGLL,1549.89357,S,04754.64108,W,211258.00,A,A*6B
$GPTXT,01,01,00,rxbuf alloc port 1*51
$GPRMC,211259.00,A,1549.89377,S,04754.64146,W,0.097,,300814,,,A*7B
$GPVTG,,T,,M,0.0,0.179,K,A*22
$GPGGA,211259.00,1549.89377,S,04754.64146,W,1,08,0.95,1067.8,M,-11.9.85*0D
$GPGSV,4,1,13,05,29,288,34,07,,,23,08,14,104,38,10,23,345,24*44
$GPGSV,4,226,39,211,41*70
$GPGSV,4,3,13,28,47,173,48,30,36,132,44,33,49,066,38,39,08,085,*74754.64146,W,211259.00,A,A*62
$GPTXT,01,01,00,rxbuf alloc port 1*51
$GPRMC,211300.00,A,1549.89388,S,04754.64176,W,0.020,,300814,,,A*79
$GPVTG,M,0.020,N,0.037,K,A*25
$GPGGA,211300.00,1549.89388,S,04754.64176,W,1,08,0.95,1069,08,26,10,05,17,13,,,,,2.08,0.95,1.85*0D
$GPGSV,4,1,13,05,29,288,33,07,,,24,08,146,33,26,39,211,41*70
$GPGSV,4,3,13,28,47,173,48,30,36,132,44,33,49,066,38,39,08,049.89388,S,04754.64176,W,211300.00,A,A*6C
$GPTXT,01,01,00,rxbuf alloc port 1*51
$GPRMC,211301.00,A,1549.89395,S,04754.64198,W,0.013,,300814,,,A*74
$GPVTG,,.013,N,0.023,K,A*20
$GPGGA,211301.00,1549.89395,S,04754.64198,W,1,08,0.95,1069.5,26,10,05,17,13,,,,,2.08,0.95,1.85*0D
$GPGSV,4,1,14,05,29,288,33,07,,,25,08,14,104,1,00,119,38,13,10,040,36,17,61,036,36,26,39,211,41*72
$GPGSV,4,3,14,28,47,173,48,28,085,,51,21,279,37*7C
$GPGLL,1549.89395,S,04754.64198,W,211301.00,A,A*61
$GPTXT,01,01,00,rxbuf alloc port 1*51
$GPRMC,211302.00,A,1549.89401,S,04754.64216,W,0.009,,300814,,,A*73$GPVTG,,T,,M,0.009,N,0.017,K,A*2C
$GPGGA,211302.00,1549.89401,S,04754.64216,W,1,08A,3,30,28,08,26,10,05,17,13,,,,,2.08,0.95,1.85*0D
$GPGSV,4,1,13,05,29,288,33,07,,,SV,4,2,13,11,00,119,38,13,10,040,35,17,61,036,32,26,39,211,41*72
$GPGSV,4,3,13,28,37,39,08,085,*7C
$GPGSV,4,4,13,51,21,279,37*44
$GPGLL,1549.89401,S,04754.64216,W$GPTXT,01,01,00,rxbuf alloc port 1*51
$GPRMC,211303.00,A,1549.89402,S,04754.64229,W,0.044,,300814,,,A*74
$GPVTG,,T,,M,.044,N,0.082,K,A*29
$GPGGA,211303.00,1549.89402,S,04754.64229,W,1,08,0.95,1070.1,M10,05,17,13,,,,,2.08,0.95,1.85*0D
$GPGSV,4,1,13,05,29,288,33,07,,,29,08,14,104,36,119,38,13,10,040,35,17,61,036,32,26,39,211,40*73
$GPGSV,4,3,13,28,47,173,48,30,36,$GPTXT,01,01,00,rxbuf alloc port 1*51
$GPRMC,211304.00,A,1549.89404,S,04754.64238,W,0.029,,300814,,,A*7E
$GPVTG,,T,.029,N,0.053,K,A*2E
$GPGGA,211304.00,1549.89404,S,04754.64238,W,1,08,0.95,1070.2,M,,,,,2.08,0.95,1.85*0D
$GPGSV,4,1,13,05,29,288,34,07,,,30,08,14,104,35,10,23,345,20,35,17,61,036,33,26,39,211,41*73
$GPGSV,4,3,13,28,47,173,48,30,36,132,44,33,49,0604,S,04754.64238,W,211304.00,A,A*62
$GPTXT,01,01,00,rxbuf alloc port 1*51
$GPRMC,211304.00,A,1549.89408,S,04754.64247,W,0.032,,300814,,,A*70
$GP4.00,1549.89408,S,04754.64247,W,1,08,0.95,1070.1,M,-11.9,M,,*44
$GPGSA,A,3,30,28,085*0D
$GPGSV,4,1,13,05,29,288,34,07,,,30,08,14,104,34,10,23,345,26*48
$GPGSV,4,2,7,173,48,30,36,132,44,33,49,066,37,39,08,085,*7C
$GPGSV,4,4,13,51,21,279,37*44
$6
$GPTXT,01,01,00,rxbuf alloc port 1*51
$GPRMC,211305.00,A,1549.89412,S,04754.64255,W,0.039,,300814,,,A*7GPVTG,,T,,M,0.039,N,0.071,K,A*2F
$GPGGA,211305.00,1549.89412,S,04754.64255,W,1,08A,3,30,28,08,26,10,05,17,13,,,,,2.08,0.95,1.85*0D
$GPGSV,4,1,14,05,29,288,35,07,,GPGSV,4,2,14,11,00,119,38,13,10,040,35,17,61,036,33,26,39,211,40*75
$GPGSV,4,3,1433,49,066,37*49
$GPGSV,4,4,14,39,08,085,,51,21,279,37*7C
$GPGLL,1549.89412,S,047$GPTXT,01,01,00,rxbuf alloc port 1*51
$GPRMC,211306.00,A,1549.89417,S,04754.64261,W,0.029,,300814,,,A*72
$GPVTG,,T,,29,N,0.054,K,A*29
$GPGGA,211306.00,1549.89417,S,04754.64261,W,1,08,0.95,1069.6,M,6,10,05,17,13,,,,,2.08,0.95,1.85*0D
$GPGSV,4,1,13,05,29,288,35,07,,,29,08,14,104,3,00,119,38,13,10,040,34,17,61,036,34,26,39,211,40*74
$GPGSV,4,3,13,28,47,173,48,30
$GPGSV,4,4,13,51,21,279,37*44
$GPGLL,1549.89417,S,04754.64261,W,211306.00,A,A*6E$GPTXT,01,01,00,rxbuf alloc port 1*51
$GPRMC,211307.00,A,1549.89423,S,04754.64265,W,0.034,,300814,,,A*7C
$GPVTG,,T,,M,0.034N,0.064,K,A*26
$GPGGA,211307.00,1549.89423,S,04754.64265,W,1,08,0.95,1069.4,M,-116,10,05,17,13,,,,,2.08,0.95,1.85*0D
$GPGSV,4,1,14,05,29,288,35,07,,,29,08,14,104,31,41*7C
$GPGSV,4,3,14,28,47,173,47,30,36,132,44,32,,,25,33,49,066,36*4C
$GPGSV,4$GPGLL,1549.89423,S,04754.64265,W,211307.00,A,A*6C
$GPTXT,01,01,00,rxbuf alloc port 1*51
$GPRMC,211308.00,A,1549.89430,S,04754.64266,W,0.040,,300814,,,A*71
$TG,,T,,M,0.040,N,0.074,K,A*24
$GPGGA,211308.00,1549.89430,S,04754.64266,W,1,08,0.5,17,13,,,,,2.08,0.95,1.85*0D
$GPGSV,4,1,13,05,29,288,36,07,,,28,08,14,104,29,10,210,040,34,17,61,036,34,26,39,211,41*7A
$GPGSV,4,3,13,28,47,173,47,30,36,132,44,33,PGLL,1549.89430,S,04754.64266,W,211308.00,A,A*62
$GPTXT,01,01,00,rxbuf alloc port 1*51
$GPRMC,211309.00,A,1549.89434,S,04754.64265,W,0.004,,300814,,,A*7
$GPVTG,,T,,M,0.004,N,0.007,K,A*20
$GPGGA,211309.00,1549.89434,S,04754.64265,W,1,,A,3,30,28,08,26,10,05,17,13,,,,,2.08,0.95,1.85*0D
$GPGSV,4,1,13,05,29,288,36,07,,34,17,61,036,34,26,39,211,41*7A
$GPGSV,4,3,13,28,47,173,47,30,36,132,44,33,49,066,LL,1549.89434,S,04754.64265,W,211309.00,A,A*64
$GPTXT,01,01,00,rxbuf alloc port 1*51
$GPRMC,211310.00,A,1549.89436,S,04754.64263,W,0.034,,300814,,,A*78
$GPVTG,,T,,M,0.0343,K,A*21
$GPGGA,211310.00,1549.89436,S,04754.64263,W,1,08,0.95,1068.8,M,-11.9,M,,17,13,,,,,2.08,0.95,1.85*0D
$GPGSV,3,1,12,05,29,288,35,08,14,104,24,10,23,345,26,10,040,33,17,61,036,34,26,39,211,41,28,47,173,47*79
$GPGSV,3,3,12,30,36,132,44,33$GPTXT,01,01,00,rxbuf alloc port 1*51
$GPRMC,211311.00,A,1549.89438,S,04754.64263,W,0.031,,300814,,,A*72
$GPVTG,,T,,M,0.03,0.058,K,A*2C
$GPGGA,211311.00,1549.89438,S,04754.64263,W,1,08,0.95,1068.6,M,-11.,10,05,17,13,,,,,2.08,0.95,1.85*0D
$GPGSV,3,1,12,05,29,288,35,08,14,104,22,10,23,33,2,12,13,10,040,33,17,61,036,33,26,39,211,41,28,47,173,47*7E
$GPGSV,3,3,12,30,36,279,37*74
$GPGLL,1549.89438,S,04754.64263,W,211311.00,A,A*67
$GPTXT,01,01,00,rxbuf alloc port 1*51
$GPRMC,211312.00,A,1549.89439,S,04754.64259,W,0.007,,300814,,,A*7C
$GPVTG,,T,,M,0.00714,K,A*21
$GPGGA,211312.00,1549.89439,S,04754.64259,W,1,08,0.95,1068.4,M,-11.9,M,0,05,17,13,,,,,2.08,0.95,1.85*0D
$GPGSV,3,1,12,05,29,288,35,08,14,104,17,10,23,3412,13,10,040,33,17,61,036,32,26,39,211,41,28,47,173,47*7F
$GPGSV,3,3,12,30,36,132279,37*74
$GPGLL,1549.89439,S,04754.64259,W,211312.00,A,A*6C
$GPTXT,01,01,00,rxbuf alloc port 1*51
$GPRMC,211313.00,A,1549.89438,S,04754.64254,W,0.023,,300814,,,A*77
$GPVTG,,T,
$GPGGA,211313.00,1549.89438,S,04754.64254,W,1,08,0.95,1068.3,M,-11.9,M,,*48
$GPG95,1.85*0D
$GPGSV,3,1,12,05,29,288,35,08,14,104,18,10,23,345,25,11,00,119,39*75
,47*7E
$GPGSV,3,3,12,30,36,132,44,33,49,066,36,39,08,085,,51,21,279,37*74
$GPGLL,*61
$GPTXT,01,01,00,rxbuf alloc port 1*51
$GPRMC,211314.00,A,1549.89438,S,04754.64246,W,0.010,,300814,,,A*73
$G,,T,,M,0.010,N,0.019,K,A*2A
$GPGGA,211314.00,1549.89438,S,04754.64246,W,1,08,0.9530,28,08,26,10,05,17,13,,,,,2.08,0.95,1.85*0D
$GPGSV,3,1,12,05,29,288,36,08,14,1061,036,33,26,39,211,41,28,47,173,47*7E
$GPGSV,3,3,12,30,36,132,44,33,49,066,36,39,4754.64246,W,211314.00,A,A*65
$GPTXT,01,01,00,rxbuf alloc port 1*51
$GPRMC,211315.00,A,1549.89439,S,04754.64240,W,0.017,,300814,,,A*72
$GPVTG,M,0.017,N,0.031,K,A*27
$GPGGA,211315.00,1549.89439,S,04754.64240,W,1,08,0.95,106828,08,26,10,05,17,13,,,,,2.08,0.95,1.85*0D
$GPGSV,3,1,12,05,29,288,36,08,14,104,24,3,2,12,13,10,040,33,17,61,036,33,26,39,211,41,28,47,173,47*7E
$GPGSV,3,3,12,30,321,279,37*73
$GPGLL,1549.89439,S,04754.64240,W,211315.00,A,A*63
$GPTXT,01,01,00,rxbuf alloc port 1*51
$GPRMC,211316.00,A,1549.89437,S,04754.64235,W,0.020,,300814,,,A*79
$TG,,T,,M,0.020,N,0.036,K,A*24
$GPGGA,211316.00,1549.89437,S,04754.64235,W,1,08,0.9,30,28,08,26,10,05,17,13,,,,,2.08,0.95,1.85*0D
$GPGSV,3,1,12,05,28,289,35,08,14,10GPGSV,3,2,12,13,10,040,33,17,61,036,32,26,39,211,41,28,47,173,47*7F
$GPGSV,3,3,12,51,21,279,37*73
$GPGLL,1549.89437,S,04754.64235,W,211316.00,A,A*6C
$GPTXT,01,01,00,rxbuf alloc port 1*51
$GPRMC,211317.00,A,1549.89436,S,04754.64226,W,0.044,,300814,,,A*79
$GPVTG,,T,,M,0436,S,04754.64226,W,1,08,0.95,1068.5,M,-11.9,M,,*41
$GPGSA,A,3,30,28,08,26,10,05,3,1,12,05,28,289,36,08,14,104,29,10,23,345,25,11,00,119,39*74
$GPGSV,3,2,12,13,10,8,47,173,47*7C
$GPGSV,3,3,12,30,36,132,43,33,49,066,36,39,08,085,,51,21,279,37*73
,211317.00,A,A*6E
$GPTXT,01,01,00,rxbuf alloc port 1*51
$GPRMC,211318.00,A,1549.89434,S,04754.64219,W,0.015,,300814,,,A*7C
$GPVTG,,T,,M,,N,0.028,K,A*2D
$GPGGA,211318.00,1549.89434,S,04754.64219,W,1,08,0.95,1068.8,M,-1,,,2.08,0.95,1.85*0D
$GPGSV,3,1,12,05,28,289,36,08,14,104,30,10,23,345,25,11,00,117,61,036,32,26,39,211,42,28,47,173,47*7C
$GPGSV,3,3,12,30,36,132,43,33,49,066,36,549.89434,S,04754.64219,W,211318.00,A,A*6F
$GPTXT,01,01,00,rxbuf alloc port 1*51
$GPRMC,211319.00,A,1549.89431,S,04754.64212,W,0.006,,300814,,,A*71
$GP,,T,,M,0.006,N,0.012,K,A*26
$GPGGA,211319.00,1549.89431,S,04754.64212,W,1,08,0.95,30,28,08,26,10,05,17,13,,,,,2.08,0.95,1.85*0D
$GPGSV,3,1,12,05,28,289,36,08,14,113,10,040,33,17,61,036,32,26,39,211,42,28,47,173,47*7C
$GPGSV,3,3,12,30,36,132,4337*73
$GPGLL,1549.89431,S,04754.64212,W,211319.00,A,A*60
$GPTXT,01,01,00,rxbuf alloc port 1*51
$GPRMC,211320.00,A,1549.89425,S,04754.64209,W,0.015,,300814,,,A*76
$GPVTG,,,0.015,N,0.028,K,A*2D
$GPGGA,211320.00,1549.89425,S,04754.64209,W,1,08,0.95,1069.,26,10,05,17,13,,,,,2.08,0.95,1.85*0D
$GPGSV,3,1,12,05,28,289,35,08,14,104,32,10,2,12,13,10,040,34,17,61,036,32,26,39,211,41,28,47,173,47*78
$GPGSV,3,3,12,30,36,1379,37*72
$GPGLL,1549.89425,S,04754.64209,W,211320.00,A,A*65
$GPTXT,01,01,00,rxbuf alloc port 1*51
$GPRMC,211321.00,A,1549.89422,S,04754.64203,W,0.023,,300814,,,A*7F
$GPVTG,,T,,M,N,0.044,K,A*22
$GPGGA,211321.00,1549.89422,S,04754.64203,W,1,08,1.05,1069.7,M,-16,10,05,17,13,,,,,2.35,1.05,2.11*05
$GPGSV,3,1,12,05,28,289,34,08,14,104,33,10,23,12,13,10,040,33,17,61,036,31,26,39,211,41,28,47,173,47*7C
$GPGSV,3,3,12,30,36,13279,37*73
$GPGLL,1549.89422,S,04754.64203,W,211321.00,A,A*69
$GPTXT,01,01,00,rxbuf alloc port 1*51
$GPRMC,211322.00,A,1549.89418,S,04754.64197,W,0.045,,300814,,,A*7B
$GTG,,T,,M,0.045,N,0.083,K,A*29
$GPGGA,211322.00,1549.89418,S,04754.64197,W,1,08,0.93,30,28,08,26,10,05,17,13,,,,,2.08,0.95,1.84*0C
$GPGSV,3,1,12,05,28,289,34,08,14,1GPGSV,3,2,12,13,10,040,33,17,61,036,29,26,39,211,41,28,47,173,47*75
$GPGSV,3,3,12,51,21,279,37*73
$GPGLL,1549.89418,S,04754.64197,W,211322.00,A,A*6D
$GPTXT,01,01,00,rxbuf alloc port 1*51
$GPRMC,211323.00,A,1549.89416,S,04754.64187,W,0.043,,300814,,,A*73
$GPVTG,,K,A*2D
$GPGGA,211323.00,1549.89416,S,04754.64187,W,1,08,0.95,1069.9,M,-11.9,M,,*47,13,,,,,2.08,0.95,1.84*0C
$GPGSV,3,1,12,05,28,289,37,08,14,104,34,10,23,345,29,1189416,S,04754.64187,W,211323.00,A,A*63
$GPTXT,01,01,00,rxbuf alloc port 1*51
$GPRMC,211324.00,A,1549.89412,S,04754.64177,W,0.021,,300814,,,A*7B
$GPVTG,,T,,M,9412,S,04754.64177,W,1,08,0.95,1070.2,M,-11.9,M,,*4E
$GPGSA,A,3,30,28,08,26,10,05
$GPGSV,3,1,12,05,28,289,37,08,14,104,35,10,23,345,29,11,00,119,40*7A
$GPGSV,3,2,111,42,28,47,173,47*72
$GPGSV,3,3,12,30,36,132,42,33,49,066,37,39,08,085,,51,21,274.00,A,A*6F
$GPTXT,01,01,00,rxbuf alloc port 1*51
$GPRMC,211325.00,A,1549.89405,S,04754.64168,W,0.044,,300814,,,A*71
$GPVTG,,T,,M,0.044,N,0.081,K,A*2A
$GPGGA,211325.00,1549.89405,S,04754.64168,W,1,08,0.95,,30,28,08,26,10,05,17,13,,,,,2.08,0.95,1.84*0C
$GPGSV,3,1,12,05,28,289,35,08,14,108
$GPGSV,3,2,12,13,10,039,34,17,61,036,32,26,39,211,42,28,47,173,47*75
$GPGSV,3,308,085,,51,21,279,38*7C
$GPGLL,1549.89405,S,04754.64168,W,211325.00,A,A*66
$GPTXT,01,01,00,rxbuf alloc port 1*51
$GPRMC,211326.00,A,1549.89396,S,04754.64159,W,0.012,,300814,,,A*7E
$GPVTG,,0.012,N,0.022,K,A*20
$GPGGA,211326.00,1549.89396,S,04754.64159,W,1,08,0.95,1070.08,26,10,05,17,13,,,,,2.08,0.95,1.84*0C
$GPGSV,3,1,12,05,28,289,34,08,14,104,31,137*73
$GPGLL,1549.89396,S,04754.64159,W,211326.00,A,A*6A
$GPTXT,01,01,00,rxbuf alloc port 1*51
$GPRMC,211327.00,A,1549.89386,S,04754.64154,W,0.039,,300814,,,A*7A
$GPV,,M,0.039,N,0.072,K,A*2C
$GPGGA,211327.00,1549.89386,S,04754.64154,W,1,08,0.95,1077,13,,,,,2.08,0.95,1.84*0C
$GPGSV,3,1,12,05,28,289,33,08,14,104,35,10,23,345,28,1139,32,17,61,036,36,26,39,211,46,28,47,173,50*75
$GPGSV,3,3,12,30,36,132,43,33,49,$GPGLL,1549.89386,S,04754.64154,W,211327.00,A,A*67
$GPTXT,01,01,00,rxbuf alloc port 1*51
$GPRMC,211328.00,A,1549.89388,S,04754.64150,W,0.036,,300814,,,A*70
$GPVTG,,T,,M,0.036,N,0.066,K,A*26
$GPGGA,211328.00,1549.89388,S,04754.64150,W*43
$GPGSA,A,3,30,28,08,26,10,05,17,13,,,,,2.08,0.95,1.84*0C
$GPGSV,3,1,12,05,28,,00,119,40*70
$GPGSV,3,2,12,13,10,039,37,17,62,036,38,26,39,211,42,28,47,173,47*739,08,085,,51,21,279,36*70
$GPGLL,1549.89388,S,04754.64150,W,211328.00,A,A*62
$GPTXT,01,01,00,rxbuf alloc port 1*51
$GPRMC,211329.00,A,1549.89397,S,04754.64139,W,0.590,,300814,,,A*79
$GPVTG,,T,,M0.590,N,1.093,K,A*24
$GPGGA,211329.00,1549.89397,S,04754.64139,W,1,08,0.95,1070.9,13,10,039,30,17,62,036,38,26,39,211,37,28,47,173,38*72
$GPGSV,3,3,12,30,36,132,2,33*75
$GPGLL,1549.89397,S,04754.64139,W,211329.00,A,A*62
$GPTXT,01,01,00,rxbuf alloc port 1*51
$GPRMC,211330.00,A,1549.89404,S,04754.64143,W,0.452,,300814,,,A*7E
$GPVTG,,T,,M,0.4526,K,A*2D
$GPGGA,211330.00,1549.89404,S,04754.64143,W,1,08,0.95,1071.0,M,-11.9,M,,7,13,,,,,2.08,0.95,1.84*0C
$GPGSV,3,1,12,05,28,289,29,08,14,104,30,10,23,345,25,1,039,30,17,62,036,34,26,39,211,26,28,47,173,30*76
$GPGSV,3,3,12,30,36,132,27,33,49GPGLL,1549.89404,S,04754.64143,W,211330.00,A,A*6A
$GPTXT,01,01,00,rxbuf alloc port 1*51
$GPRMC,211331.00,A,1549.89414,S,04754.64140,W,0.350,,300814,,,A*78
$GPVTG,,T,,M,0.35047,K,A*20
$GPGGA,211331.00,1549.89414,S,04754.64140,W,1,07,0.99,1070.9,M,-11.9,M,,13,,,,,,2.12,0.99,1.88*0D
$GPGSV,3,1,12,05,28,289,29,08,14,104,20,10,23,345,30,173,*72
$GPGSV,3,3,12,30,36,132,31,33,49,066,27,39,08,085,,51,21,279,33*72
$GPGLL,11331.00,A,A*69
$GPTXT,01,01,00,rxbuf alloc port 1*51
$GPRMC,211332.00,A,1549.89433,S,04754.64113,W,1.284,,300814,,,A*71
$G,,T,,M,1.284,N,2.377,K,A*2D
$GPGGA,211332.00,1549.89433,S,04754.64113,W,1,08,0.99,2,12,13,10,039,21,17,62,036,27,26,39,211,22,28,47,173,26*77
$GPGSV,3,3,12,30,36,1GLL,1549.89433,S,04754.64113,W,211332.00,A,A*69
$GPTXT,01,01,00,rxbuf alloc port 1*51
$GPRMC,211333.00,A,1549.89494,S,04754.64117,W,1.880,,300814,,,A*77
$GPVTG,,T,,M,1.880,N,3.482,K,A*2F
$GPGGA,211333.00,1549.89494,S,04754.64117,W,1,08,0.95,1070.9,08,26,10,05,17,13,,,,,2.08,0.95,1.84*0C
$GPGSV,3,1,12,05,28,289,30,08,14,104,15,GSV,3,2,12,13,10,039,22,17,62,036,27,26,39,211,21,28,47,173,23*72
$GPGSV,3,3,12,3021,279,31*74
$GPGLL,1549.89494,S,04754.64117,W,211333.00,A,A*61
$GPTXT,01,01,00,rxbuf alloc port 1*51
$GPRMC,211334.00,A,1549.89542,S,04754.64125,W,1.752,,300814,,,A*
$GPVTG,,T,,M,1.752,N,3.245,K,A*22
$GPGGA,211334.00,1549.89542,S,04754.64125,W,1GSA,A,3,30,28,08,26,10,05,17,13,,,,,2.08,0.96,1.84*0F
$GPGSV,3,1,12,05,28,289,31,,16*77
$GPGSV,3,2,12,13,10,039,21,17,62,036,26,26,39,211,19,28,47,173,21*79
$GPGS8,085,,51,21,279,30*7E
$GPGLL,1549.89542,S,04754.64125,W,211334.00,A,A*6D
$GPTXT,01,01,00,rxbuf alloc port 1*51
$GPRMC,211335.00,A,1549.89591,S,04754.64133,W,1.851,,300814,,,A*7F
$GPVTG,,T,,M,1.851,289,30,08,14,104,10,10,23,345,16,11,00,119,15*76
$GPGSV,3,2,12,13,10,039,20,17,62
$GPGSV,3,3,12,30,36,132,19,33,49,066,,39,08,085,,51,21,279,30*7E
$GPGLL,1549.8965
$GPTXT,01,01,00,rxbuf alloc port 1*51
$GPRMC,211336.00,A,1549.89604,S,04754.64114,W,0.982,,300814,,,A*78
$GPVT,,M,0.982,N,1.819,K,A*21
$GPGGA,211336.00,1549.89604,S,04754.64114,W,1,08,0.96,10,28,08,26,10,05,17,13,,,,,2.08,0.96,1.84*0F
$GPGSV,3,1,12,05,28,289,30,08,14,104,1SV,3,2,12,13,10,039,19,17,62,036,26,26,39,211,18,28,47,173,20*72
$GPGSV,3,3,12,30,GLL,1549.89604,S,04754.64114,W,211336.00,A,A*6C
$GPTXT,01,01,00,rxbuf alloc port 1*51
$GPRMC,211337.00,A,1549.89603,S,04754.64104,W,0.405,,300814,,,A*7D$GPVTG,,T,,M,0.405,N,0.751,K,A*21
$GPGGA,211337.00,1549.89603,S,04754.64104,W,1,08A,3,30,28,08,26,10,05,17,13,,,,,2.35,1.05,2.11*05
$GPGSV,3,1,12,05,28,289,30,08,14
$GPGSV,3,2,12,13,10,039,19,17,62,036,26,26,39,211,20,28,47,173,20*79
$GPGSV,3,3,85,,51,21,279,30*7E
$GPGLL,1549.89603,S,04754.64104,W,211337.00,A,A*6B
$GPTXT,01,01,00,rxbuf alloc port 1*51
$GPRMC,211338.00,A,1549.89612,S,04754.64106,W,0.466,,300814,,,A*75
$GPVTG,,T,,M,0.466GGA,211338.00,1549.89612,S,04754.64106,W,1,08,1.05,1070.0,M,-11.9,M,,*4D
$GPGSA,A$GPTXT,01,01,00,rxbuf alloc port 1*51
$GPRMC,211339.00,A,1549.89623,S,04754.64083,W,0.932,,300814,,,A*76
$GP,A*29
$GPGGA,211339.00,1549.89623,S,04754.64083,W,1,07,1.05,1069.1,M,-11.9,M,,*44
2.11*0D
$GPGSV,3,1,12,05,28,289,30,08,14,104,,10,23,345,18,11,00,119,09*74
$GPGSV132,19,33,49,066,,39,08,085,,51,21,279,30*7E
$GPGLL,1549.89623,S,04754.64083,W,211$GPTXT,01,01,00,rxbuf alloc port 1*51
$GPRMC,211340.00,A,1549.89641,S,04754.64061,W,1.402,,300814,,,A*7F
$GPVTG,,T,,M,1GGA,211340.00,1549.89641,S,04754.64061,W,1,07,1.05,1068.2,M,-11.9,M,,*40
$GPGSA,A*0C
$GPGSV,3,1,12,05,28,289,30,08,14,104,,10,23,345,19,11,00,119,*7C
$GPGSV,3,2,1GPGSV,3,3,12,30,36,132,19,33,49,066,,39,08,085,,51,21,279,30*7E
$GPGLL,1549.89641,$GPTXT,01,01,00,rxbuf alloc port 1*51
$GPRMC,211341.00,A,1549.89632,S,04754.64075,W,0.355,,300814,,,A*7B
$GPVTG7,K,A*24
$GPGGA,211341.00,1549.89632,S,04754.64075,W,1,07,1.05,1068.6,M,-11.9,M,,
$GPGSV,3,1,12,05,28,289,29,08,14,104,,10,23,345,18,11,00,119,*75
$GPGSV,3,2,12,1,08,085,,51,21,279,30*7C
$GPGLL,1549.89632,S,04754.64075,W,211341.00,A,A*6F
$GPTXT,01,01,00,rxbuf alloc port 1*51
$GPRMC,211342.00,A,1549.89624,S,04754.64078,W,0.102,,300814,,,A*72
K,A*20
$GPGGA,211342.00,1549.89624,S,04754.64078,W,1,07,1.05,1068.4,M,-11.9,M,,*410*0C
$GPGSV,3,1,12,05,28,289,29,08,14,104,,10,23,345,17,11,00,119,*7A
$GPGSV,3,2PGSV,3,3,12,30,36,131,18,33,49,066,,39,08,085,,51,21,279,30*7C
$GPGLL,1549.89624,S$GPTXT,01,01,00,rxbuf alloc port 1*51
$GPRMC,211343.00,A,1549.89591,S,04754.64077,W,0.695,,300814,,,A*78
$GPVTG,,T,,M,0.629,08,14,104,,10,23,345,17,11,00,119,13*78
$GPGSV,3,2,12,13,10,039,18,17,62,036,2,36,131,19,33,49,066,,39,08,085,,51,21,279,30*7D
$GPGLL,1549.89591,S,04754.64077,$GPTXT,01,01,00,rxbuf alloc port 1*51
$GPRMC,211344.00,A,1549.89556,S,04754.64081,W,0.775,,300814,,,A*72
$1.436,K,A*26
$GPGGA,211344.00,1549.89556,S,04754.64081,W,1,07,1.05,1068.0,M,-11.935,1.05,2.10*0C
$GPGSV,3,1,12,05,28,289,29,08,14,104,,10,23,345,17,11,00,119,13*783,49,066,,39,08,085,,51,21,279,30*7D
$GPGLL,1549.89556,S,04754.64081,W,211344.00,A$GPTXT,01,01,00,rxbuf alloc port 1*51
$GPRMC,211345.00,A,1549.89534,S,04754.64075,W,0.547,,300814,,,A*7F
$GPVTG,,TK,A*26
$GPGGA,211345.00,1549.89534,S,04754.64075,W,1,07,1.05,1067.1,M,-11.9,M,,*4
$GPGSV,3,1,12,05,28,289,30,08,14,104,,10,23,345,17,11,00,119,13*70
$GPGSV,3,2,12,3,3,12,30,36,131,19,33,49,066,,39,08,085,,51,21,279,31*7C
$GPGLL,1549.89534,S,0475$GPTXT,01,01,00,rxbuf alloc port 1*51
$GPRMC,211346.00,A,1549.89502,S,04754.64084,W,0.688,,300814,,,A*,,M,0.688,N,1.274,K,A*25
$GPGGA,211346.00,1549.89502,S,04754.64084,W,1,07,1.05,106,2.35,1.05,2.10*0C
$GPGSV,3,1,12,05,28,289,31,08,14,104,,10,23,345,17,11,00,119,12,23,28,46,173,21*75
$GPGSV,3,3,12,30,36,131,20,33,49,066,,39,08,085,,51,21,279,30*,A,A*66
$GPTXT,01,01,00,rxbuf alloc port 1*51
$GPRMC,211347.00,A,1549.89496,S,04754.64100,W,0.266,,300814,,,A*7.266,N,0.492,K,A*2E
$GPGGA,211347.00,1549.89496,S,04754.64100,W,1,07,1.05,1067.8,M10*0C
$GPGSV,3,1,12,05,28,289,31,08,14,104,,10,23,345,18,11,00,119,13*7E
$GPGSV,39,066,,39,08,085,,51,21,279,29*74
$GPGLL,1549.89496,S,04754.64100,W,211347.00,A,A$GPTXT,01,01,00,rxbuf alloc port 1*51
$GPRMC,211348.00,A,1549.89445,S,04754.64077,W,1.645,,300814,,,A*77
$GPVTG,*25
$GPGGA,211348.00,1549.89445,S,04754.64077,W,1,07,1.05,1066.0,M,-11.9,M,,*45
,32,08,14,104,,10,23,345,19,11,00,119,14*7B
$GPGSV,3,2,12,13,10,039,16,17,62,036,2V,3,3,12,30,36,131,19,33,49,066,,39,08,085,,51,21,279,30*7D
$GPGLL,1549.89445,S,04$GPTXT,01,01,00,rxbuf alloc port 1*51
$GPRMC,211349.00,A,1549.89424,S,04754.64070,W,0.761,,300814,,,A*70
$GPV61,N,1.410,K,A*27
$GPGGA,211349.00,1549.89424,S,04754.64070,W,1,07,1.05,1065.4,M,5,2.10*0C
$GPGSV,3,1,12,05,28,289,31,08,14,104,,10,23,345,18,11,00,119,14*79
$GPG6,173,22*77
$GPGSV,3,3,12,30,36,131,19,33,49,066,,39,08,085,,51,21,279,28*74
$GP$GPTXT,01,01,00,rxbuf alloc port 1*51
$GPRMC,211350.00,A,1549.89398,S,04754.64085,W,0.549,,300814,,,A*7A
$GPVTG,,T,,M,0.549,1549.89398,S,04754.64085,W,1,07,1.05,1065.8,M,-11.9,M,,*4D
$GPGSA,A,3,30,28,26,1,14*76
$GPGSV,3,2,12,13,10,039,15,17,62,036,27,26,39,211,24,28,46,173,21*70
$GPG1,279,27*71
$GPGLL,1549.89398,S,04754.64085,W,211350.00,A,A*65
$GPTXT,01,01,00,rxbuf alloc port 1*51
$GPRMC,211351.00,A,1549.89371,S,04754.64110,W,0.898,,300814,,,A*70
$GPV3,K,A*28
$GPGGA,211351.00,1549.89371,S,04754.64110,W,1,07,1.05,1066.2,M,-11.9,M,,*PGSV,3,1,12,05,28,289,32,08,14,104,,10,23,345,18,11,00,119,14*7A
$GPGSV,3,2,12,13SV,3,3,12,30,36,131,20,33,49,066,,39,08,085,,51,21,279,27*71
$GPGLL,1549.89371,S,$GPTXT,01,01,00,rxbuf alloc port 1*51
$GPRMC,211352.00,A,1549.89367,S,04754.64101,W,0.550,,300814,,,A*7D
$0,N,1.018,K,A*2B
$GPGGA,211352.00,1549.89367,S,04754.64101,W,1,08,1.05,1065.3,M,-1,2.10*04
$GPGSV,3,1,11,05,28,289,32,08,14,104,16,10,23,345,19,11,00,119,13*78
$GP20*75
$GPGSV,3,3,11,30,36,131,20,33,49,066,,39,08,085,*4C
$GPGLL,1549.89367,S,04$GPTXT,01,01,00,rxbuf alloc port 1*51
$GPRMC,211353.00,A,1549.89373,S,04754.64096,W,0.601,,300814,,,A*71
$GPVTG,,T,,M,0.601,N,1.113,K,A*26
$GPGGA,211353.00,1549.89373,S,04754.64PGSV,3,1,11,05,28,289,32,08,14,104,14,10,23,345,18,11,00,119,12*7A
$GPGSV,3,2,11,1GPGSV,3,3,11,30,36,131,19,33,49,066,,39,08,085,*46
$GPGLL,1549.89373,S,04754.64096$GPTXT,01,01,00,rxbuf alloc port 1*51
$GPRMC,211354.00,A,1549.89346,S,04754.64087,W,0.935,,300814,,,A*78
$GPVTG,,TGPGGA,211354.00,1549.89346,S,04754.64087,W,1,08,1.05,1064.4,M,-11.9,M,,*4A
$GPGSA,PGSV,3,1,11,05,28,289,31,08,14,104,12,10,23,345,18,11,00,119,12*7F
$GPGSV,3,2,11,,20*75
$GPGSV,3,3,11,30,36,131,18,33,49,066,,39,08,085,*47
$GPGLL,1549.89346,S,0$GPTXT,01,01,00,rxbuf alloc port 1*51
$GPRMC,211355.00,A,1549.89336,S,04754.64100,W,0.507,,300814,,,A*7D
$GPVTG,
$GPGGA,211355.00,1549.89336,S,04754.64100,W,1,08,1.05,1064.7,M,-11.9,M,,*41
$GPGS04
$GPGSV,3,1,11,05,28,289,30,08,14,104,11,10,23,345,17,11,00,119,11*71
$GPGSV,318,33,49,066,,39,08,085,*47
$GPGLL,1549.89336,S,04754.64100,W,211355.00,A,A*68
$GPTXT,01,01,00,rxbuf alloc port 1*51
$GPRMC,211356.00,A,1549.89344,S,04754.64113,W,0.544,,300814,,,A*7E
$GPVTG,,T64113,W,1,07,1.05,1064.0,M,-11.9,M,,*4D
$GPGSA,A,3,30,28,26,10,05,17,13,,,,,,2.354,09,10,23,345,17,11,00,119,09*79
$GPGSV,3,2,11,13,10,039,13,17,62,036,23,26,39,2166,,39,08,085,*4C
$GPGLL,1549.89344,S,04754.64113,W,211356.00,A,A*6C
$GPTXT,01,01,00,rxbuf alloc port 1*51
$GPRMC,211357.00,A,1549.89345,S,04754.64097,W,0.307,,300814,,,A*72
$GPVTG,,T,,M,0.307,N,0.568,K,A*2C
$GPGGA,211357.00,1549.8934,1062.8,M,-11.9,M,,*4E
$GPGSA,A,3,30,28,26,10,05,17,13,,,,,,2.35,1.05,2.10*0C
$G119,*71
$GPGSV,3,2,11,13,10,039,13,17,62,036,23,26,39,211,20,28,46,173,19*7E
$GPGLL,1549.89345,S,04754.64097,W,211357.00,A,A*61
$GPTXT,01,01,00,rxbuf alloc port 1*51
$GPRMC,211358.00,A,1549.89283,S,04754.64089,W,2.042,,300814,,,A*79
$GPVTG,PGGA,211358.00,1549.89283,S,04754.64089,W,1,07,1.05,1062.4,M,-11.9,M,,*49
$GPGSA,A28,289,29,08,14,104,08,10,23,345,17,11,00,119,*71
$GPGSV,3,2,11,13,10,039,13,17,6,30,36,131,22,33,49,066,,39,08,085,*4E
$GPGLL,1549.89283,S,04754.64089,W,211358.00$GPTXT,01,01,00,rxbuf alloc port 1*51
$GPRMC,211359.00,A,1549.89269,S,04754.64099,W,0.667,,300814,,,A*7E
$GPVTG,,T,,M,,211359.00,1549.89269,S,04754.64099,W,1,07,1.30,1062.8,M,-11.9,M,,*47
$GPGSA,A,3,,1,11,05,28,289,26,08,14,104,08,10,23,345,16,11,00,119,*7F
$GPGSV,3,2,11,13,10,03$GPGSV,3,3,11,30,36,131,20,33,49,066,,39,08,085,*4C
$GPGLL,1549.89269,S,04754.640$GPTXT,01,01,00,rxbuf alloc port 1*51
$GPRMC,211400.00,A,1549.89195,S,04754.64174,W,2.742,,300814,,,A*73
$GPVTG,,T,211400.00,1549.89195,S,04754.64174,W,1,07,1.25,1063.2,M,-11.9,M,,*41
$GPGSA,A,3,F
$GPGSV,3,1,11,05,28,289,26,08,14,104,08,10,23,345,17,11,00,119,*7E
$GPGSV,3,2,28,46,173,17*75
$GPGSV,3,3,11,30,36,131,17,33,49,066,,39,08,085,*48
$GPGLL,1549.$GPTXT,01,01,00,rxbuf alloc port 1*51
$GPRMC,211401.00,A,1549.89200,S,04754.64183,W,0.747,,300814,,,A*72
$GPVTG,,T,,M,0.71.00,1549.89200,S,04754.64183,W,1,06,1.25,1064.0,M,-11.9,M,,*43
$GPGSA,A,3,30,28,28,289,24,08,14,104,07,10,23,345,16,11,00,119,*72
$GPGSV,3,2,11,13,10,039,09,17,621,30,36,131,17,33,49,066,,39,08,085,*48
$GPGLL,1549.89200,S,04754.64183,W,211401.$GPTXT,01,01,00,rxbuf alloc port 1*51
$GPRMC,211402.00,A,1549.89159,S,04754.64168,W,1.041,,300814,,,A*7B
$GPVTG,,28,26,10,05,17,,,,,,,3.30,1.25,3.05*0D
$GPGSV,3,1,11,05,28,289,26,08,14,104,07,1020,28,46,173,17*70
$GPGSV,3,3,11,30,36,131,20,33,49,066,,39,08,085,*4C
$GPGLL,154$GPTXT,01,01,00,rxbuf alloc port 1*51
$GPRMC,211403.00,A,1549.89102,S,04754.64165,W,1.832,,300814,,,A*75
$GPVTG,,T,,2,N,3.393,K,A*21
$GPGGA,211403.00,1549.89102,S,04754.64165,W,1,06,1.25,1064.5,M,-05,17,,,,,,,3.30,1.25,3.05*0D
$GPGSV,3,1,11,05,28,289,27,08,14,104,,10,23,345,19,,039,08,17,62,036,27,26,39,211,19,28,46,173,15*76
$GPGSV,3,3,11,30,36,131,19,33,489102,S,04754.64165,W,211403.00,A,A*6A
$GPTXT,01,01,00,rxbuf alloc port 1*51
$GPRMC,211404.00,A,1549.89091,S,04754.64184,W,0.556,,300814,,,A*78
$GPVTG,,T,,M,0.556,N,1.029,K,A*2F
$GPGGA,211404.00,1549.89091,S,04754.64184,W,
$GPGSA,A,3,30,28,08,26,10,05,17,,,,,,3.29,1.25,3.05*0D
$GPGSV,3,1,11,05,28,289,20,119,*78
$GPGSV,3,2,11,13,10,039,05,17,62,036,27,26,39,211,18,28,46,173,14*7B
$G,39,08,085,*46
$GPGLL,1549.89091,S,04754.64184,W,211404.00,A,A*69
$GPTXT,01,01,00,rxbuf alloc port 1*51
$GPRMC,211405.00,A,1549.89028,S,04754.64172,W,1.999,,300814,,,A*7C
$GPVTG,,T,,M,1.99,,,,,3.29,1.25,3.05*0D
$GPGSV,3,1,11,05,28,289,28,08,14,104,17,10,23,345,21,11,00,11,18,28,46,173,12*7D
$GPGSV,3,3,11,30,36,131,19,33,49,066,,39,08,085,*46
$GPGLL0,A,A*63
$GPTXT,01,01,00,rxbuf alloc port 1*51
$GPRMC,211406.00,A,1549.88970,S,04754.64186,W,2.226,,300814,,,A*7D
$GPVTG,,9.88970,S,04754.64186,W,1,07,1.25,1065.3,M,-11.9,M,,*4F
$GPGSA,A,3,30,28,08,26,10,V,3,1,11,05,28,289,28,08,14,104,17,10,23,345,21,11,00,119,*7B
$GPGSV,3,2,11,13,1028,46,173,12*7F
$GPGSV,3,3,11,30,36,131,19,33,49,066,,39,08,085,*46
$GPGLL,1549.6E
$GPTXT,01,01,00,rxbuf alloc port 1*51
$GPRMC,211407.00,A,1549.88920,S,04754.64207,W,2.055,,300814,,,A*75
$GPVTG,,T,,055,N,3.807,K,A*2D
$GPGGA,211407.00,1549.88920,S,04754.64207,W,1,07,1.25,1066.4,M,26,10,05,17,,,,,,3.29,1.25,3.05*0D
$GPGSV,3,1,11,05,28,289,28,08,14,104,17,10,23,3,10,039,06,17,62,036,26,26,39,211,17,28,46,173,12*70
$GPGSV,3,3,11,30,36,131,19,338920,S,04754.64207,W,211407.00,A,A*60
$GPTXT,01,01,00,rxbuf alloc port 1*51
$GPRMC,211408.00,A,1549.88855,S,04754.64322,W,2.770,,300814,,,A*7F
$GPVTG,M,2.770,N,5.130,K,A*26
$GPGGA,211408.00,1549.88855,S,04754.64322,W,1,07,1.02,1071,62,036,27,26,39,211,18,28,46,173,12*7E
$GPGSV,3,3,11,30,36,131,19,33,49,066,,39,54.64322,W,211408.00,A,A*6A
$GPTXT,01,01,00,rxbuf alloc port 1*51
$GPRMC,211409.00,A,1549.88755,S,04754.64376,W,3.586,347.21,300814,,A*67
$GPVTG,347.21,T,,M,3.586,N,6.642,K,A*30
$GPGGA,211409.00,1549.88755,S,0475M,,*4D
$GPGSA,A,3,30,28,08,26,10,05,17,,,,,,2.24,1.02,1.99*03
$GPGSV,3,1,11,05,2,11,00,119,*79
$GPGSV,3,2,11,13,10,039,06,17,62,036,26,26,39,211,20,28,46,173,12*7
$GPGLL,1549.88755,S,04754.64376,W,211409.00,A,A*65
$GPTXT,01,01,00,rxbuf alloc port 1*51
$GPRMC,211410.00,A,1549.88688,S,04754.64373,W,2.811,,300814,,,A*
$GPVTG,,T,,M,2.811,N,5.205,K,A*2B
$GPGGA,211410.00,1549.88688,S,04754.64373,W,1GSA,A,3,30,28,08,26,10,05,17,13,,,,,2.24,1.02,1.99*01
$GPGSV,3,1,11,05,28,289,28,07A
$GPGSV,3,2,11,13,10,039,10,17,62,036,27,26,39,211,21,28,46,173,09*79
$GPGSV,3085,*46
$GPGLL,1549.88688,S,04754.64373,W,211410.00,A,A*69
$GPTXT,01,01,00,rxbuf alloc port 1*51
$GPRMC,211411.00,A,1549.88659,S,04754.64386,W,1.983,,300814,,,A*7A
$GPVTG,,T,,M,1.9832,K,A*20
$GPGGA,211411.00,1549.88659,S,04754.64386,W,1,08,1.02,1073.7,M,-11.9,M,,039,10,17,62,036,28,26,39,211,20,28,46,173,09*77
